"id","Nom","Marque","address","latitude","longitude","services","automate_h24"
"21320007","AGIP AIRE DES LOCHERES A6 SUD NORD","Agip","A6 AIRE DES LOCHERES 21320 EGUILLY",47.3093886,4.5013959,"Carburant additivé|Restauration sur place|Toilettes publiques|Douches|Boutique alimentaire|Station de gonflage|Espace bébé|Boutique non alimentaire|Piste poids lourds|Automate CB",True
"21190006","RELAIS DE BEAUNE TAILLY","Total","AUTOROUTE A6  AIRE DE BEAUNE TAILLY 21190 MERCEUIL",46.96468370000001,4.8368226,"Restauration à emporter|Carburant additivé|Toilettes publiques|Douches|Boutique alimentaire|Station de gonflage|Espace bébé|Boutique non alimentaire|Aire de camping-cars|Piste poids lourds|Automate CB",True
"54700008","AGIP LOISY","Agip","A31 AIRE DE LOISY 54700 Loisy",48.860591299999996,6.0917108,"Restauration à emporter|Restauration sur place|Toilettes publiques|Bar|Boutique alimentaire|Station de gonflage|Espace bébé|Boutique non alimentaire|Piste poids lourds",False
"63610001","SIMPLY MARKET","Simply Market","Route de Compains 63610 Besse-et-Saint-Anastaise",45.509807,2.9354875,"Automate CB",True
"2190005","Station AVIA","Avia","AUT A 26 AIRE DU MONT NIZY 02190 Juvincourt-et-Damary",49.4505608,3.9245631000000003,"",False
"2100012","CORA","CORA","Route de BOHAIN 02100 Saint-Quentin",49.8649365,3.2920809999999996,"Station de gonflage|Laverie|Vente de gaz domestique (Butane, Propane)|Automate CB|Automate CB 24/24",True
"2100013","INTERMARCHE SAINT-QUENTIN /ZAC","Intermarché","Rue Antoine Parmentier 02100 SAINT-QUENTIN",49.851829200000005,3.2648799,"Vente de gaz domestique (Butane, Propane)|Automate CB|Vente de fioul domestique",True
"2100017","SARL MAROLEG","Netto","Rue de la Fère 02100 Saint-Quentin",49.833341,3.3066174,"Boutique alimentaire|Automate CB|Lavage automatique",True
"4400004","RELAIS DE TERRES NEUVES. SATA.","Indépendant sans enseigne","Terres Neuves. St Pons 04400 BARCELONNETTE",44.3868833,6.628631599999999,"Toilettes publiques|Bar|Boutique alimentaire|Station de gonflage|Boutique non alimentaire|Vente de gaz domestique (Butane, Propane)|Piste poids lourds|Automate CB|Lavage automatique|Lavage manuel|Vente de fioul domestique|Vente de pétrole lampant|Vente d'additifs carburants|Automate CB 24/24",True
"5100008","RELAIS GDE BOUCLE","Total Access","AV. DU DAUPHINE 05100 BRIANCON",44.9036522,6.629131,"Carburant additivé|Boutique alimentaire|Station de gonflage|Boutique non alimentaire|Vente de gaz domestique (Butane, Propane)|Automate CB|Lavage automatique",True
"8200010","RELAIS SEDAN MARNE","Total Access","8 AVENUE DE LA MARNE 08200 SEDAN",49.699338299999994,4.9269062,"Restauration à emporter|Carburant additivé|Boutique alimentaire|Station de gonflage|Boutique non alimentaire|Vente de gaz domestique (Butane, Propane)|Piste poids lourds|Automate CB|Lavage automatique",True
"12100005","AUCHAN SUPERMARCHE","Auchan","82 Avenue Jean Jaurès 12100 MILLAU",44.10686079999999,3.0824738999999997,"Vente de gaz domestique (Butane, Propane)|Automate CB",True
"13600016","AGIP LE LIOUQUET A 50","Agip","AUTOROUTE A 50 13600 LA CIOTAT",43.192469700000004,5.6660430999999996,"Carburant additivé|Toilettes publiques|Douches|Boutique alimentaire|Station de gonflage|Espace bébé|Piste poids lourds",False
"14500001","SA PRUNIER","Total","RTE DE CAEN 14500 VIRE",48.85389979999999,-0.8799706,"Carburant additivé|Boutique alimentaire|Station de gonflage|Boutique non alimentaire|Services réparation / entretien|Piste poids lourds|Automate CB|Lavage automatique|Lavage manuel|Automate CB 24/24",True
"16100006","INTERMARCHE COGNAC","Intermarché","20 avenue des Saintes 16100 Cognac",45.6989319,-0.3440647,"Boutique alimentaire|Station de gonflage|Boutique non alimentaire|Vente de gaz domestique (Butane, Propane)|Piste poids lourds|Automate CB|Lavage automatique|Lavage manuel|Vente de fioul domestique",True
"17000012","RELAIS STAR VILLENEUVE LES SALINES","Total","RUE JEANPAUL SARTRE 17000 La Rochelle",46.1568852,-1.120358,"",False
"18500006","AGIP BOURGES MARMAGNE A 71","Agip","A71 AIRE DE BOURGES MARMAGNE 18500 MARMAGNE",47.09547379999999,2.2428083,"Restauration à emporter|Carburant additivé|Restauration sur place|Toilettes publiques|Bar|Douches|Boutique alimentaire|Station de gonflage|Espace bébé|Boutique non alimentaire|Piste poids lourds",False
"20600007","SAS FERRANDI FILS","Esso","AVENUE SAPIERO CORSU 20600 BASTIA",42.6764751,9.4445005,"Restauration à emporter|Restauration sur place|Toilettes publiques|Bar|Boutique alimentaire|Station de gonflage|Services réparation / entretien|Vente de gaz domestique (Butane, Propane)|Aire de camping-cars|Piste poids lourds|Lavage automatique|Lavage manuel|Vente de pétrole lampant|Bornes électriques|Wifi",False
"20290003","SARL RELAIS DE BORGO","Total","Lieudit Revinco  RN 193 20290 Borgo",42.568079100000006,9.441135000000001,"Restauration à emporter|Toilettes publiques|Boutique alimentaire|Station de gonflage|Boutique non alimentaire|Services réparation / entretien|Vente de gaz domestique (Butane, Propane)|Piste poids lourds|Automate CB|Lavage automatique|Lavage manuel|Vente de fioul domestique|Vente de pétrole lampant",True
"20243001","SARL RELAIS AUTO DU FIUMORBO","Total","LieuDit Migliacciaro 20243 PRUNELLI-DI-FIUMORBO",41.9980754,9.403153300000001,"Restauration à emporter|Toilettes publiques|Boutique alimentaire|Station de gonflage|Espace bébé|Boutique non alimentaire|Services réparation / entretien|Vente de gaz domestique (Butane, Propane)|Piste poids lourds|Automate CB|Lavage automatique|Lavage manuel|Vente de fioul domestique|Vente de pétrole lampant",True
"22400007","RELAIS COETMIEUX","Total Access","BEL AIR  RN 12 22400 COETMIEUX",48.4771049,-2.5914639999999998,"",False
"23000004","AVIA SARL REMERAND","Avia","AIRE DES MONTS DE GUERET 23000 SAINT-SULPICE-LE-GUéRéTOIS",46.183,1.8459999999999999,"Carburant additivé|Toilettes publiques|Douches|Boutique alimentaire|Station de gonflage|Espace bébé|Boutique non alimentaire|Aire de camping-cars|Piste poids lourds|Automate CB",True
"24200005","CASINO SUPERMARCHE","Casino","Route de BERGERAC  24200 Sarlat-la-Canéda",44.876514,1.2136799999999999,"Vente de gaz domestique (Butane, Propane)",False
"27200004","SARL ALBIK","Avia","73 Avenue de Paris 27200 Vernon",49.0879628,1.4938446,"Carburant additivé|Toilettes publiques|Boutique alimentaire|Station de gonflage|Boutique non alimentaire|Vente de gaz domestique (Butane, Propane)|Location de véhicule|Relais colis|Lavage automatique",False
"68390004","RELAIS BATTENHEIM","Total","AUTOROUTE A35  AIRE DE BATTENHEIM 68390 BATTENHEIM",47.8359069,7.3949637,"",False
"89200008","AVIA XPRESS VAUBAN","Avia","6 Rue de Lyon 89200 Avallon",47.492194500000004,3.9221517,"Carburant additivé|Automate CB",True
"91170006","RELAIS GRANDE BORNE","Total","RN 445 / 29 ROUTE DE FLEURY 91170 Viry-Châtillon",48.6510011,2.3689918,"Carburant additivé|Boutique alimentaire|Station de gonflage|Boutique non alimentaire|Vente de gaz domestique (Butane, Propane)|Automate CB|Lavage automatique|Lavage manuel",True
"44300004","SO'GEROUEST Rte de Rennes","Avia","162 Route de Rennes 44300 Nantes",47.258359399999996,-1.5798059,"Restauration à emporter|Carburant additivé|Toilettes publiques|Boutique alimentaire|Station de gonflage|Boutique non alimentaire|Vente de gaz domestique (Butane, Propane)|Relais colis|Lavage automatique",False
"30800001","INTERMARCHE SAINT GILLES","Intermarché","1 Rue de Cambon 30800 SAINT-GILLES",43.672344700000004,4.4219281,"Restauration à emporter|Restauration sur place|Toilettes publiques|Bar|Boutique alimentaire|Station de gonflage|Boutique non alimentaire|Laverie|Vente de gaz domestique (Butane, Propane)|Relais colis|Piste poids lourds|Automate CB|Vente de fioul domestique|Vente de pétrole lampant|Automate CB 24/24",True
"34500027","RELAIS DEVEZE","Total Access","1 AVENUE DE LA DEVEZE 34500 BEZIERS",43.3315513,3.2474107999999995,"",False
"83170002","ETS BRELY SARL","Avia",".RN7 83170 BRIGNOLES",43.4088589,6.0449128,"Carburant additivé|Toilettes publiques|Boutique alimentaire|Station de gonflage|Boutique non alimentaire|Vente de gaz domestique (Butane, Propane)|Location de véhicule|Piste poids lourds|Automate CB|Lavage automatique",True
"86130008","AGIP A10 AIRE POITIERS CHINCE NORD","Agip","SENS POITIERS TOURS 86130 Jaunay-Marigny",46.7014673,0.3713511,"Restauration à emporter|Carburant additivé|Restauration sur place|Toilettes publiques|Douches|Boutique alimentaire|Station de gonflage|Espace bébé|Boutique non alimentaire|Piste poids lourds|Automate CB|Wifi|Automate CB 24/24",True
"76680003","SGAR SAS","Shell","AUT A 28  AIRE DE MAUCONBLE 76680 Bosc-Mesnil",49.67848370000001,1.3383569,"Restauration à emporter|Carburant additivé|Restauration sur place|Toilettes publiques|Douches|Boutique alimentaire|Espace bébé|Boutique non alimentaire",False
"77400012","BP ST THIBAULT DES VIGNES","BP","AVENUE ST GERMAIN DES NOYERS 77400 Saint-Thibault-des-Vignes",48.864970299999996,2.6763849,"Carburant additivé|Toilettes publiques|Boutique alimentaire|Station de gonflage|Boutique non alimentaire|Vente de gaz domestique (Butane, Propane)|Lavage automatique",False
"72000019","RELAIS LE MANS RHIN DANUBE","Total Access","314 AV RHIN ET DANUBE 72000 LE MANS",48.0230934,0.1829726,"Carburant additivé|Vente de gaz domestique (Butane, Propane)|Automate CB|Lavage automatique|Lavage manuel",True
"21160004","RELAIS DE LA COTE","Total","ROUTE DE BEAUNE 21160 Marsannay-la-Côte",47.280567,5.008109200000001,"Restauration à emporter|Carburant additivé|Toilettes publiques|Boutique alimentaire|Station de gonflage|Boutique non alimentaire|Vente de gaz domestique (Butane, Propane)|Relais colis|Piste poids lourds",False
"83130001","RELAIS LA CHABERTE","Avia","AUTOROUTE A 57 83130 La Garde",43.1497548,6.034151400000001,"Restauration à emporter|Carburant additivé|Restauration sur place|Toilettes publiques|Douches|Boutique alimentaire|Station de gonflage|Espace bébé|Boutique non alimentaire|Piste poids lourds",False
"24120007","RELAIS MOULIN ROUGE","Total Access","REL MOULIN ROUGE/ RTE DE BRIVE 24120 TERRASSON",45.12843,1.3175299999999999,"Restauration à emporter|Carburant additivé|Douches|Boutique alimentaire|Station de gonflage|Espace bébé|Boutique non alimentaire|Vente de gaz domestique (Butane, Propane)|Relais colis|Piste poids lourds|Automate CB|Lavage manuel|Vente de pétrole lampant",True
"90160001","AUCHAN BESSONCOURT","Auchan","CD 419 90160 BESSONCOURT",47.6411598,6.916483,"Restauration à emporter|Carburant additivé|Restauration sur place|Toilettes publiques|Bar|Boutique alimentaire|Station de gonflage|Espace bébé|Boutique non alimentaire|Vente de gaz domestique (Butane, Propane)|Piste poids lourds|Automate CB|Lavage automatique|Lavage manuel",True
"13770002","INTERMARCHE VENELLES","Intermarché","32 avenue des Logissons 13770 VENELLES",43.5822791,5.4726779,"Automate CB",True
"51100043","RELAIS REIMS DAUPHINOT","Total","55 BLD DAUPHINOT 51100 REIMS",49.2592558,4.0566218,"Carburant additivé|Toilettes publiques|Boutique alimentaire|Station de gonflage|Services réparation / entretien|Vente de gaz domestique (Butane, Propane)|Relais colis|Piste poids lourds|Lavage automatique|Lavage manuel",False
"92230010","RELAIS DES AGNETTES","Elf","113 AV LAURENT CELY 92230 GENNEVILLIERS",48.9206895,2.3059966,"Carburant additivé|Boutique alimentaire|Station de gonflage|Vente de gaz domestique (Butane, Propane)|Piste poids lourds|Automate CB|Lavage automatique",True
"78630011","RELAIS ORGEVAL - BENO","Total Access","ROUTE DE 40 SOUS  RN113 78630 ORGEVAL",48.930678799999995,1.975096,"Carburant additivé|Boutique alimentaire|Station de gonflage|Boutique non alimentaire|Vente de gaz domestique (Butane, Propane)|Piste poids lourds|Automate CB|Lavage automatique",True
"44570004","SARL AMALLY","Avia","RN 171 44570 TRIGNAC",47.311318,-2.200929,"Restauration à emporter|Carburant additivé|Toilettes publiques|Boutique alimentaire|Station de gonflage|Boutique non alimentaire|Relais colis|Piste poids lourds",False
"14400010","RELAIS DE VAUCELLES","Total Access","ROUTE NATIONALE 13 14400 VAUCELLES",49.2839686,-0.7256100000000001,"Toilettes publiques|Station de gonflage|Vente de gaz domestique (Butane, Propane)|Location de véhicule|Automate CB|Lavage manuel",True
"62120014","ROC France Station ESSO","Esso","Aire de Rely  Autoroute A26  Sens Calais  Reims 62120 Rely",50.5726681,2.3772762000000003,"Restauration à emporter|Carburant additivé|Restauration sur place|Toilettes publiques|Boutique alimentaire|Station de gonflage|Espace bébé|Boutique non alimentaire|Laverie|Piste poids lourds|Automate CB",True
"30126005","ESSO TAVEL NORD","Esso","AUTOROUTE A9 30126 Tavel",44.003482,4.704620200000001,"Carburant additivé|Toilettes publiques|Douches|Boutique alimentaire|Station de gonflage|Espace bébé|Boutique non alimentaire|Piste poids lourds",False
"17240001","SAS FUEL 17","Total","75 AVENUE de Saintes 17240 SAINT-GENIS-DE-SAINTONGE",45.4889875,-0.5657864,"Carburant additivé|Boutique alimentaire|Boutique non alimentaire|Vente de gaz domestique (Butane, Propane)|Piste poids lourds|Automate CB|Vente de fioul domestique|Wifi",True
"68160004","RELAIS STE MARIE AUX MINES","Total Access","RN 59 68160 Sainte-Marie-aux-Mines",48.2543657,7.206836999999999,"",False
"31700009","RELAIS BLAGNAC LOMAGNE","Total Access","120 ROUTE DE GRENADE 31700 BLAGNAC",43.638192100000005,1.3902707,"Carburant additivé|Boutique alimentaire|Station de gonflage|Vente de gaz domestique (Butane, Propane)|Automate CB|Lavage automatique|Lavage manuel",True
"47200003","SARL JACQUES","Total"," Route de Bordeaux 47200 MARMANDE",44.5053636,0.15039349999999999,"Carburant additivé|Boutique alimentaire|Station de gonflage|Boutique non alimentaire|Services réparation / entretien|Vente de gaz domestique (Butane, Propane)|Location de véhicule|Piste poids lourds|Lavage manuel",False
"69800017","RELAIS ST HUBERT","Total Access","91 RTE DE GRENOBLE 69800 Saint-Priest",45.70697,4.98698,"",False
"81200004","RELAIS DU SUD OUEST","Esso","boulevard du thoré 81200 aussillon",43.5088618,2.361112,"Carburant additivé|Piste poids lourds|Automate CB",True
"86300002","MENU AUTOMOBILES","Esso","ZA DE PEURON 2 RUE ENTREPRENEURS 86300 Chauvigny",46.5576169,0.6245596999999999,"Carburant additivé|Toilettes publiques|Douches|Station de gonflage|Boutique non alimentaire|Services réparation / entretien|Vente de gaz domestique (Butane, Propane)|Location de véhicule|Piste poids lourds|Automate CB",True
"67230006","RELAIS HUTTENHEIM","Total Access","ROUTE DE LYON  RD1083 67230 HUTTENHEIM",48.3626764,7.573834,"Restauration à emporter|Restauration sur place|Bar|Station de gonflage|Piste poids lourds|Automate CB",True
"84310004","Aire de service de Morières","Esso","Autoroute A7 (Sens Lyon  Marseille) 84310 Morières-lès-Avignon",43.9246806,4.9127785,"Restauration à emporter|Carburant additivé|Toilettes publiques|Boutique alimentaire|Station de gonflage|Boutique non alimentaire|Piste poids lourds|Automate CB",True
"33660001","ROMPETROL Palombières","ROMPETROL","A89 Aire des Palombières 33660 GOURS",45.001280799999996,0.036665300000000005,"Restauration à emporter|Restauration sur place|Toilettes publiques|Douches|Boutique alimentaire|Station de gonflage|Espace bébé|Boutique non alimentaire|Piste poids lourds|Automate CB|Vente de fioul domestique",True
"77250006","RELAIS MORET SUR LOING 1","Total Access","RD 606 77250 ECUELLES",48.364044299999996,2.8532429,"Restauration à emporter|Carburant additivé|Restauration sur place|Toilettes publiques|Bar|Douches|Boutique alimentaire|Station de gonflage|Boutique non alimentaire|Vente de gaz domestique (Butane, Propane)|Piste poids lourds|Automate CB|Lavage automatique|Vente de fioul domestique",True
"37800006","RELAIS STE MAURE","Total","AUTOROUTE A10  AIRE DE SAINTE MAURE DE TOURAINE 37800 Saint-Épain",47.1675782,0.6309600999999999,"",False
"31290005","ESSO LAURAGAIS","Esso Express","170 Avenue de la République 31290 Villefranche-de-Lauragais",43.4029583,1.7124435000000002,"",False
"44600001","GEANT CASINO","Géant","332 Route de la Côte d'Amour 44600 SAINT-NAZAIRE",47.258924,-2.2650040000000002,"Carburant additivé|Vente de gaz domestique (Butane, Propane)|Automate CB",True
"31620005","SAS FRONTAL","Intermarché","800 Route de Toulouse 31620 FRONTON",43.8314114,1.3899329,"Station de gonflage|Vente de gaz domestique (Butane, Propane)|Automate CB|Lavage manuel|Vente de pétrole lampant",True
"13011003","Station AVIA - B2M SARL","Avia","ROUTE DES TROIS LUCS LA VALENTINE 13011 MARSEILLE",43.2996115,5.4781685,"Carburant additivé|Boutique alimentaire|Station de gonflage|Boutique non alimentaire|Vente de gaz domestique (Butane, Propane)|Automate CB|Lavage automatique|Lavage manuel",True
"69004015","BP LYON CROIX ROUSSE 8 à Huit","BP","71 BOULEVARD DES CANUTS 69004 LYON",45.7807419,4.8272639999999996,"Carburant additivé|Toilettes publiques|Boutique alimentaire|Station de gonflage|Boutique non alimentaire|Vente de gaz domestique (Butane, Propane)|Lavage automatique",False
"74000017","AGIP ANNECY ALLUEGES","Agip","4 BIS CHEMIN DES ALLUEGES 74000 ANNECY",45.910102,6.1180954000000005,"",False
"95290001","CARREFOUR L ISLE ADAM","Carrefour","BOULEVARD TILSIT 95290 L'ISLE-ADAM",49.1237501,2.2482162,"Vente de gaz domestique (Butane, Propane)|Automate CB|Automate CB 24/24",True
"52200012","STATION AVIA SARL BAMART","Avia","24 AVENUE TURENNE 52200 LANGRES",47.8550411,5.332489499999999,"Restauration à emporter|Carburant additivé|Toilettes publiques|Boutique alimentaire|Station de gonflage|Boutique non alimentaire|Vente de gaz domestique (Butane, Propane)|Relais colis|Piste poids lourds|Automate CB|Vente de fioul domestique",True
"62130003","INTERMARCHE ST POL SUR TERNOISE","Intermarché","RUE DE BETHUNE 62130 Saint-Pol-sur-Ternoise",50.387190000000004,2.3498,"",False
"34690007","AGIP FABREGUES","Agip","AIRE DE FABREGUES NORD 34690 Fabrègues",43.5480058,3.7955501000000003,"Carburant additivé|Toilettes publiques|Douches|Boutique alimentaire|Station de gonflage|Espace bébé|Piste poids lourds",False
"84100005","INTERMARCHE Autoroute","Intermarché","286 Avenue Charles de Gaulle 84100 ORANGE",44.136533899999996,4.800898999999999,"Restauration à emporter|Carburant additivé|Toilettes publiques|Boutique alimentaire|Boutique non alimentaire|Vente de gaz domestique (Butane, Propane)|Piste poids lourds|Automate CB",True
"35150001","Super U JANZE","Système U","BOULEVARD CHARCOT 35150 Janzé",47.95871470000001,-1.48725,"Station de gonflage|Vente de gaz domestique (Butane, Propane)|Location de véhicule|Piste poids lourds|Automate CB|Lavage automatique|Lavage manuel|Vente de pétrole lampant",True
"13170007","PACA Carburant","Avia","970 D113 N 13170 Les Pennes-Mirabeau",43.4114232,5.3132432000000005,"Carburant additivé|Vente de gaz domestique (Butane, Propane)|Piste poids lourds|Automate CB|Lavage automatique",True
"11200002","DYNEFF Lézignan-Corbières","Dyneff","RD6113 11200 LéZIGNAN-CORBIèRES",43.2032114,2.7817804,"Toilettes publiques|Boutique alimentaire|Station de gonflage|Boutique non alimentaire|Vente de gaz domestique (Butane, Propane)|Automate CB|Lavage automatique|Lavage manuel|Vente de pétrole lampant",True
"24700001","INTERMARCHE","Intermarché","Avenue Georges Pompidou 24700 Montpon-Ménestérol",45.0061896,0.1427776,"Carburant additivé|Piste poids lourds|Automate CB|Vente de pétrole lampant",True
"22100008","ESSO service Duguesclin","ESSO","route de dol de bretagne 22100 LANVALLAY",48.4606914,-2.0151699,"Carburant additivé|Toilettes publiques|Station de gonflage|Boutique non alimentaire|Vente de gaz domestique (Butane, Propane)|Piste poids lourds|Vente de fioul domestique",False
"80000018","BP AMIENS SANTERRE","BP","190 CHAUSSEE JULES FERRY 80000 AMIENS",49.880933899999995,2.330432,"Carburant additivé|Toilettes publiques|Boutique alimentaire|Station de gonflage|Boutique non alimentaire|Services réparation / entretien|Vente de gaz domestique (Butane, Propane)|Lavage automatique",False
"67170009","BP BRUMATH","BP","AUTOROUTE A4 AIRE DE BRUMATH EST 67170 BRUMATH",48.7205856,7.6960913,"Restauration à emporter|Carburant additivé|Restauration sur place|Toilettes publiques|Douches|Boutique alimentaire|Station de gonflage|Espace bébé|Boutique non alimentaire|Piste poids lourds",False
"51800004","AVIA CROCHET FRERES S.A.S.","Avia","Route de Châlons 51800 SAINTE-MENEHOULD",49.086736200000004,4.8792908,"Carburant additivé|Boutique alimentaire|Station de gonflage|Boutique non alimentaire|Services réparation / entretien|Piste poids lourds|Automate CB|Vente de fioul domestique|Automate CB 24/24",True
"93210003","RELAIS DU LANDY","Total","207213 AVENUE DU PDT WILSON 93210 La plaine-saint-denis",48.913372700000004,2.3572834,"Carburant additivé|Toilettes publiques|Boutique alimentaire|Station de gonflage|Boutique non alimentaire|Vente de gaz domestique (Butane, Propane)|Automate CB|Lavage automatique|Lavage manuel",True
"50300001","CARREFOUR AVRANCHES","Carrefour","PARC D'ACTIVITE DE LA BAIE 50300 AVRANCHES",48.652881799999996,-1.3500225000000001,"Station de gonflage|Vente de gaz domestique (Butane, Propane)|Automate CB|Lavage automatique|Lavage manuel",True
"17210001","STATION AVIA","Avia","Lieudit Le Terrier de Chierzac 17210 Bedenac",45.1730875,-0.3331563,"Restauration à emporter|Carburant additivé|Restauration sur place|Toilettes publiques|Douches|Boutique alimentaire|Station de gonflage|Espace bébé|Boutique non alimentaire|Piste poids lourds",False
"91300007","CORA MASSY","CORA","Avenue de l'Europe 91300 Massy",48.726172,2.2792339,"Station de gonflage|Automate CB",True
"53700001","Super U VILLAINES LA JUHEL","Système U","ROUTE DU MANS 53700 Villaines-la-Juhel",48.34178729999999,-0.27171100000000004,"Station de gonflage|Vente de gaz domestique (Butane, Propane)|Location de véhicule|Piste poids lourds|Lavage automatique|Lavage manuel",False
"88170006","REL.LORRAINE LES RAPPES","Total","AUT.A31AIRE DE LORRAINE SANDAUCOURTLES RAPPES 88170 SANDAUCOURT",48.2666694,5.863754,"",False
"56140001","CASINO SUPERMARCHE","Casino","Avenue de la Gare 56140 MALESTROIT",47.81,-2.3930000000000002,"Station de gonflage|Vente de gaz domestique (Butane, Propane)|Aire de camping-cars|Piste poids lourds|Automate CB|Lavage automatique|Lavage manuel|Automate CB 24/24",True
"31410003","SGAR SAS","Shell","AUT A 64  AIRE DE GARONNE 31410 Capens",43.33687570000001,1.2458453,"Restauration à emporter|Carburant additivé|Restauration sur place|Toilettes publiques|Douches|Boutique alimentaire|Station de gonflage|Espace bébé|Boutique non alimentaire|Piste poids lourds",False
"29000012","RELAIS QUIMPER ROCADE SUD","Total Access","BLD FLANDRE DUNKERQUE 29000 QUIMPER",47.979429700000004,-4.0899324,"Carburant additivé|Boutique alimentaire|Station de gonflage|Automate CB|Lavage automatique",True
"26270004","INTERMARCHE LORIOL","Intermarché","Parc des Crozes 26270 LORIOL-SUR-DRôME",44.7606186,4.8380730000000005,"Vente de gaz domestique (Butane, Propane)|Automate CB|Lavage manuel|Vente de fioul domestique",True
"78150011","BP LE CHESNAY carrefour EXPRESS","BP","100 Rue de Versailles 78150 Le Chesnay",48.8239936,2.1279986,"Carburant additivé|Toilettes publiques|Boutique alimentaire|Station de gonflage|Boutique non alimentaire|Vente de gaz domestique (Butane, Propane)|Lavage automatique",False
"49160001","Super U LONGUE","Système U","ROUTE DE SAUMUR 49160 LONGUé-JUMELLES",47.371390000000005,-0.0979,"",False
"46300006","Garrigue","Elan","Route de Salviac 46300 GOURDON",44.720757,1.3683985,"Station de gonflage|Boutique non alimentaire|Laverie|Vente de fioul domestique",False
"78350002","RELAIS CLAIR BOIS","Total Access","AUTOROUTE A86 78350 Jouy-en-Josas",48.7805779,2.1731752,"Carburant additivé|Toilettes publiques|Boutique alimentaire|Station de gonflage|Boutique non alimentaire|Lavage automatique",False
"21300001","GEANT CASINO","Géant","ZONE INDUSTRIELLE 21300 CHENôVE",47.2845873,5.0222678,"Carburant additivé|Automate CB|Automate CB 24/24",True
"72230006","SARL LMP ESSO","Esso","22 Avenue Nationale 72230 ARNAGE",47.9335,0.1874,"Carburant additivé|Toilettes publiques|Boutique alimentaire|Station de gonflage|Boutique non alimentaire|Services réparation / entretien|Vente de gaz domestique (Butane, Propane)|Relais colis|Piste poids lourds|Automate CB|Lavage automatique|Lavage manuel|Vente de fioul domestique|Automate CB 24/24",True
"65200001","GARAGE DU PIC DU MIDI","Total","77 Avenue de la Mongie 65200 POUZAC",43.081,0.1394446,"Carburant additivé|Toilettes publiques|Station de gonflage|Boutique non alimentaire|Services réparation / entretien|Piste poids lourds|Automate CB|Vente de fioul domestique|Automate CB 24/24",True
"85190001","Hyper U AIZENAY","Système U","Espace Commercial Porte du Littoral  BP 10 85190 AIZENAY",46.7330021,-1.5933108,"Station de gonflage|Vente de gaz domestique (Butane, Propane)|Piste poids lourds|Automate CB|Lavage automatique|Lavage manuel|Vente de fioul domestique|Automate CB 24/24",True
"30100005","RELAIS LA CHADENEDE","Total","44 AVENUE CARNOT 30100 Alès",44.1211844,4.0867933,"Restauration à emporter|Carburant additivé|Boutique alimentaire|Station de gonflage|Boutique non alimentaire|Services réparation / entretien|Vente de gaz domestique (Butane, Propane)|Relais colis|Lavage automatique|Lavage manuel",False
"88200001","CORA REMIREMONT","CORA","26 ROUTE DE BUSSANG 88200 REMIREMONT",48.0032526,6.614175200000001,"Restauration à emporter|Restauration sur place|Toilettes publiques|Bar|Boutique alimentaire|Station de gonflage|Espace bébé|Boutique non alimentaire|Laverie|Vente de gaz domestique (Butane, Propane)|Automate CB|Lavage automatique|Vente de fioul domestique",True
"42100018","RELAIS PONT DE L'ANE","Total Access","100 RUE DE LA MONTAT 42100 Saint-Étienne",45.4421284,4.4095028,"Carburant additivé|Boutique alimentaire|Station de gonflage|Boutique non alimentaire|Vente de gaz domestique (Butane, Propane)|Piste poids lourds|Automate CB|Lavage automatique",True
"58640004","RELAIS DE VARENNES","Total","16 BLD CAMILLE DAGONNEAU 58640 Varennes-Vauzelles",47.008407899999995,3.1524707999999997,"Carburant additivé|Boutique alimentaire|Station de gonflage|Vente de gaz domestique (Butane, Propane)|Piste poids lourds|Lavage manuel",False
"11620001","DYNEFF Villemoustaussou","Dyneff","Lieu dit La Viala 11620 VILLEMOUSTAUSSOU",43.2558745,2.3645965,"Toilettes publiques|Boutique alimentaire|Station de gonflage|Boutique non alimentaire|Vente de gaz domestique (Butane, Propane)|Automate CB|Lavage automatique|Lavage manuel|Vente de pétrole lampant",True
"60300001","EOR CHAMANT SEMAC","Total","DEVIATION NORD DE SENLIS 60300 Chamant",49.220879,2.5931944,"Restauration à emporter|Carburant additivé|Boutique alimentaire|Station de gonflage|Boutique non alimentaire|Services réparation / entretien|Piste poids lourds|Automate CB|Lavage automatique|Lavage manuel",True
"62800004","RELAIS DE ROLLENCOURT","Total Access","69 RUE DE LATTRE DE TASSIGNY 62800 LIEVIN",50.41706,2.76844,"Carburant additivé|Boutique alimentaire|Station de gonflage|Boutique non alimentaire|Vente de gaz domestique (Butane, Propane)|Piste poids lourds|Automate CB|Lavage automatique",True
"38320006","RELAIS D EYBENS","Total","ROCADE SUD 38320 EYBENS",45.152068799999995,5.7398481,"",False
"45600002","Super U ST PERE SUR LOIRE","Système U","RUE DE SAVOIE 45600 SAINT-PèRE-SUR-LOIRE",47.780415000000005,2.3746370999999997,"Station de gonflage|Vente de gaz domestique (Butane, Propane)|Piste poids lourds|Automate CB|Vente de pétrole lampant",True
"26000016","RELAIS VALENCE DAME BLANCHE","Total Access","BOULEVARD GUSTAVE ANDRE 26000 VALENCE",44.94020220000001,4.908493900000001,"",False
"35470004","RELAIS POMMENIAC","Total","ROUTE NATIONALE 137 35470 Bain-de-Bretagne",47.800524100000004,-1.6906849,"Restauration à emporter|Carburant additivé|Restauration sur place|Toilettes publiques|Douches|Boutique alimentaire|Station de gonflage|Boutique non alimentaire|Piste poids lourds|Automate CB",True
"22000003","SARL RONDEL","Total","Rue Guillaume Apollinaire 22000 SAINT-BRIEUC",48.497736700000004,-2.7465696,"Carburant additivé|Station de gonflage|Vente de gaz domestique (Butane, Propane)|Piste poids lourds|Lavage automatique|Lavage manuel",False
"1100007","RELAIS DES CRETETS","Total","174 COURS DE VERDUN 01100 OYONNAX",46.2497,5.6413,"Carburant additivé|Toilettes publiques|Boutique alimentaire|Station de gonflage|Boutique non alimentaire|Vente de gaz domestique (Butane, Propane)|Piste poids lourds|Automate CB|Lavage automatique|Lavage manuel",True
"17285001","Hyper U Coop Atlantique La Rochelle","Système U","rue du 14 juillet 17138 PUILBOREAU",46.17347,-1.1179299999999999,"Restauration à emporter|Carburant additivé|Restauration sur place|Toilettes publiques|Bar|Boutique alimentaire|Espace bébé|Boutique non alimentaire|Vente de gaz domestique (Butane, Propane)|Piste poids lourds|Automate CB|Vente de fioul domestique",True
"79025001","GEANT CASINO","Géant","c commercial geant casino route de paris 79000 Niort",46.339555299999994,-0.3847581,"Carburant additivé|Station de gonflage|Vente de gaz domestique (Butane, Propane)|Automate CB|Lavage automatique|Lavage manuel",True
"49500001","Super U Segré","Système U","Route de Laval 49500 Segré en Anjou Bleu",47.696861,-0.8713591999999999,"Restauration à emporter|Carburant additivé|Restauration sur place|Bar|Boutique alimentaire|Station de gonflage|Boutique non alimentaire|Laverie|Vente de gaz domestique (Butane, Propane)|Location de véhicule|Piste poids lourds|Automate CB|Lavage automatique|Lavage manuel",True
"45430001","Sarl Roux","Shell","RD 2060 45430 Mardié",47.906823700000004,2.0582362,"Restauration à emporter|Carburant additivé|Restauration sur place|Toilettes publiques|Bar|Douches|Boutique alimentaire|Station de gonflage|Espace bébé|Boutique non alimentaire|Piste poids lourds|Wifi",False
"83580001","GEANT CASINO","Géant","3869 RD 98A 83580 GASSIN",43.2621909,6.578055099999999,"Carburant additivé|Station de gonflage|Vente de gaz domestique (Butane, Propane)|Automate CB|Lavage automatique|Lavage manuel|Automate CB 24/24",True
"13180001","AGIP GIGNAC A55 SENS MARSEILLE VERS MARTIGUES","Agip","AIRE DE REBUTY A55 13180 GIGNAC-LA-NERTHE",43.3922174,5.2569859,"Carburant additivé|Toilettes publiques|Bar|Douches|Boutique alimentaire|Station de gonflage|Espace bébé",False
"42500012","FIRMINY DISTRIBUTION","Leclerc","Les Crozes 42500 Le Chambon-Feugerolles",45.390344,4.3130966,"",False
"59640002","RELAIS DU PONT LOBY","Total Access","AV DE LA VILLETTE 59640 DUNKERQUE",51.024440000000006,2.36115,"Carburant additivé|Boutique alimentaire|Station de gonflage|Boutique non alimentaire|Vente de gaz domestique (Butane, Propane)|Automate CB|Lavage automatique|Lavage manuel",True
"59223001","AUCHAN RONCQ","Auchan","Boulevard d'Halluin 59223 RONCQ",50.73997979999999,3.1391232000000002,"Station de gonflage|Vente de gaz domestique (Butane, Propane)|Piste poids lourds|Automate CB|Vente de pétrole lampant",True
"39200003","RELAIS ST CLAUDE LYON","Total Access","16 Route de Lyon 39200 Saint-Claude",46.3796434,5.8393315,"Carburant additivé|Boutique alimentaire|Station de gonflage|Boutique non alimentaire|Services réparation / entretien|Vente de gaz domestique (Butane, Propane)|Location de véhicule|Relais colis|Piste poids lourds|Automate CB|Lavage automatique|Lavage manuel|Vente de fioul domestique",True
"45190010","AGIP A10 AIRE DE BEAUGENCY","Agip","SENS TOURS ORLEANS 45190 MESSAS",47.818837200000004,1.6406197,"Carburant additivé|Toilettes publiques|Douches|Boutique alimentaire|Station de gonflage|Espace bébé|Boutique non alimentaire|Piste poids lourds|Wifi",False
"56190011","MARKET","Carrefour Market","ZAC DE TOULAN 56190 Ambon",47.5596446,-2.5044377,"Restauration à emporter|Carburant additivé|Toilettes publiques|Boutique alimentaire|Vente de gaz domestique (Butane, Propane)|Location de véhicule|Relais colis|Automate CB",True
"27130004","Station Service Avci","Indépendant sans enseigne","ROUTE de Paris 27130 VERNEUIL-SUR-AVRE",48.7430992,0.9646836999999999,"Toilettes publiques|Boutique alimentaire|Piste poids lourds|Automate CB",True
"67200012","RELAIS CRONENBOURG","Total Access","142 ROUTE D' OBERHAUSBERGEN 67200 STRASBOURG",48.5955563,7.709427099999999,"Carburant additivé|Boutique alimentaire|Station de gonflage|Boutique non alimentaire|Vente de gaz domestique (Butane, Propane)|Automate CB|Lavage automatique",True
"30126008","AGIP TAVEL SUD","Agip","AIRE DE TAVEL SUD 30126 Tavel",43.9990145,4.699097900000001,"Carburant additivé|Toilettes publiques|Douches|Boutique alimentaire|Station de gonflage|Espace bébé",False
"59190001","GARAGE TROLLE","Total","Rue NotreDame 59190 HAZEBROUCK",50.730801899999996,2.5438576,"Carburant additivé|Toilettes publiques|Boutique alimentaire|Station de gonflage|Boutique non alimentaire|Services réparation / entretien|Relais colis|Piste poids lourds|Lavage manuel",False
"67700012","RELAIS SAVERNE MONSWILLER","Total","A4  Aire de Saverne  Monswiller 67700 Eckartswiller",48.7599849,7.3622762999999996,"",False
"56250002","INTERMARCHE ELVEN","Intermarché","Rue Opération Savana 56250 Elven",47.7238355,-2.5937464,"Vente de gaz domestique (Butane, Propane)|Automate CB",True
"30400001","Carrefour Market","Carrefour Market","Route de Pujaut 30400 VILLENEUVE-LèS-AVIGNON",43.979507500000004,4.7864853,"Automate CB",True
"59411001","CORA","CORA","rue Jacquard 59210 COUDEKERQUE-BRANCHE",51.01566,2.38211,"Station de gonflage|Vente de gaz domestique (Butane, Propane)|Automate CB",True
"79500005","INTERMARCHE ST LEGER SUR MELLE","Intermarché","41 route de Poitiers 79500 Saint-Léger-de-la-Martinière",46.2240561,-0.1304317,"Vente de gaz domestique (Butane, Propane)|Location de véhicule|Automate CB|Vente de pétrole lampant",True
"13011016","","","AUTOROUTE A50  AIRE DE LA POMME 13011 Marseille",43.2920308,5.4538352,"Restauration à emporter|Carburant additivé|Toilettes publiques|Boutique alimentaire|Station de gonflage|Boutique non alimentaire|Piste poids lourds|Lavage automatique",False
"6270001","GEANT CASINO","Géant","Route du BorddeMer 06270 VILLENEUVE-LOUBET",43.6398988,7.138663900000001,"Carburant additivé|Station de gonflage|Vente de gaz domestique (Butane, Propane)|Automate CB|Lavage automatique",True
"37380004","RELAIS DE MESLAY","Total","AUTOROUTE A10  AIRE TOURS VAL DE LOIRE 37380 MONNAIE",47.473330499999996,0.7758136999999999,"Toilettes publiques|Douches|Boutique alimentaire|Station de gonflage|Espace bébé|Boutique non alimentaire|Piste poids lourds|Automate CB",True
"64100011","GRAND BASQUE","Esso","Avenue du Grand Basque 64100 Bayonne",43.489339799999996,-1.456611,"Station de gonflage|Services réparation / entretien|Location de véhicule|Piste poids lourds",False
"83160004","ESSO SERVICE LA BIGUE","Esso","AUTOROUTE A 57 83160 LA VALETTE-DU-VAR",43.1426787,6.0107025,"Restauration à emporter|Carburant additivé|Restauration sur place|Toilettes publiques|Bar|Douches|Boutique alimentaire|Station de gonflage|Espace bébé|Boutique non alimentaire|Vente de gaz domestique (Butane, Propane)|Piste poids lourds",False
"67400001","STATION SERVICE","Auchan","6 Avenue de Strasbourg 67400 ILLKIRCH-GRAFFENSTADEN",48.5441062,7.738011200000001,"Carburant additivé|Station de gonflage|Services réparation / entretien|Vente de gaz domestique (Butane, Propane)|Automate CB|Lavage automatique|Bornes électriques|Automate CB 24/24",True
"56450002","SARL AMALLY","Avia","LA CROIX DE BONNERVAUD  RN 165 56450 THEIX",47.637625799999995,-2.6735082,"Restauration à emporter|Carburant additivé|Toilettes publiques|Boutique alimentaire|Station de gonflage|Boutique non alimentaire|Piste poids lourds",False
"51390002","AGIP GUEUX","Agip","Aire de Gueux A4 51390 Gueux",49.244685700000005,3.9237957000000003,"Restauration à emporter|Carburant additivé|Restauration sur place|Toilettes publiques|Bar|Douches|Boutique alimentaire|Station de gonflage|Espace bébé|Boutique non alimentaire|Automate CB",True
"70300001","AUCHAN","Auchan","RN 57 70300 LUXEUIL-LES-BAINS",47.822912200000005,6.3883949,"Restauration à emporter|Restauration sur place|Toilettes publiques|Boutique alimentaire|Boutique non alimentaire|Vente de gaz domestique (Butane, Propane)|Relais colis|Piste poids lourds|Automate CB|Bornes électriques|Wifi|Automate CB 24/24",True
"47550001","GEANT CASINO","Géant","Route de Layrac 47550 Boé",44.178487200000006,0.6332998000000001,"Carburant additivé|Station de gonflage|Vente de gaz domestique (Butane, Propane)|Piste poids lourds|Automate CB",True
"12150006","RELAIS SEVERAC LE CHÂTEAU","Total","AUTOROUTE A75  AIRE DE L'AVEYRON 12150 Sévérac-le-Château",44.329812700000005,3.0806955,"",False
"86100013","HRC CHATELLERAULT","Esso","AIRE DE CHATELLERAULTANTRAN 86100 Antran",46.9078822,0.5227841,"Restauration à emporter|Carburant additivé|Douches|Boutique alimentaire|Station de gonflage|Espace bébé|Piste poids lourds",False
"77184001","","","RN 104  CD 51 77184 Émerainville",48.81623,2.62299,"",False
"13210002","INTERMARCHE ST REMY DE PROVENCE","Intermarché","N°11 Impasse de la 1er DFL ZAC de la Gare 13210 Saint-Rémy-de-Provence",43.7931971,4.8274498,"Station de gonflage|Vente de gaz domestique (Butane, Propane)|Location de véhicule|Piste poids lourds|Automate CB|Lavage automatique|Lavage manuel",True
"2500001","AUCHAN","Auchan","AVENUE DE VERDUN 02500 HIRSON",49.9111748,4.0900925,"Carburant additivé|Vente de gaz domestique (Butane, Propane)|Piste poids lourds|Automate CB",True
"13100016","RELAIS DE GALICE","Total","16 ROUTE DE GALICE 13100 Aix-en-Provence",43.5284896,5.432446700000001,"Restauration à emporter|Carburant additivé|Boutique alimentaire|Station de gonflage|Vente de gaz domestique (Butane, Propane)|Automate CB|Lavage automatique|Lavage manuel",True
"62147001","AVIA HAVRINCOURT","Avia","Autoroute A2 Aire d'Havrincourt 62147 HERMIES",50.1221967,3.0892838,"Carburant additivé|Toilettes publiques|Douches|Station de gonflage|Espace bébé|Boutique non alimentaire|Piste poids lourds",False
"72310001","Super U BESSE SUR BRAYE","Système U","LES SABLONNIERES 72310 Bessé-sur-Braye",47.8410975,0.7573717,"Restauration à emporter|Toilettes publiques|Boutique alimentaire|Station de gonflage|Boutique non alimentaire|Laverie|Vente de gaz domestique (Butane, Propane)|Location de véhicule|Piste poids lourds|Automate CB|Lavage automatique|Lavage manuel|Vente de fioul domestique",True
"38440003","INTERMARCHE ST JEAN DE BOURNAY","Intermarché","51 route Nationale 38440 Saint-Jean-de-Bournay",45.4985844,5.1374261,"Vente de gaz domestique (Butane, Propane)|Automate CB|Vente de fioul domestique|Automate CB 24/24",True
"78390005","RELAIS BOIS SENON","Total","RN 12 ROUTE DE DREUX 78390 Bois-d'Arcy",48.7988218,2.0033734,"Restauration à emporter|Carburant additivé|Toilettes publiques|Boutique alimentaire|Station de gonflage|Boutique non alimentaire|Vente de gaz domestique (Butane, Propane)|Automate CB|Lavage automatique",True
"62470004","JMV","Total","CHEMIN DEPARTEMENTAL 70 BP47 62470 Calonne-Ricouart",50.4928696,2.4881724999999997,"Carburant additivé|Toilettes publiques|Boutique alimentaire|Station de gonflage|Boutique non alimentaire|Services réparation / entretien|Vente de gaz domestique (Butane, Propane)|Piste poids lourds|Automate CB",True
"84550001","AIRE DE MORNAS VILLAGE (LES CROUSILLES)","CARAUTOROUTES","A7 AIRE DE MORNAS VILLAGE 84550 MORNAS",44.1945191,4.7312154,"Restauration à emporter|Carburant additivé|Toilettes publiques|Douches|Boutique alimentaire|Station de gonflage|Espace bébé|Boutique non alimentaire|Piste poids lourds|Automate CB|Lavage automatique",True
"2310001","SAS LES ILETTES","Système U","route de pavant 02310 CHARLY",48.972333899999995,3.2817772000000005,"Station de gonflage|Laverie|Vente de gaz domestique (Butane, Propane)|Location de véhicule|Relais colis|Automate CB|Lavage manuel",True
"47300006","INTERMARCHE VILLENEUVE S/LOT","Intermarché","Route d'Agen 47300 VILLENEUVE-SUR-LOT",44.39666,0.7076404000000001,"Carburant additivé|Vente de gaz domestique (Butane, Propane)|Piste poids lourds|Automate CB|Lavage automatique",True
"34300011","AGIP CAP D'AGDE","Agip","8 AVENUE DES SERGENTS 34300 AGDE",43.285203700000004,3.5137233,"Carburant additivé|Boutique alimentaire|Station de gonflage|Vente de gaz domestique (Butane, Propane)|Location de véhicule|Lavage automatique|Lavage manuel",False
"60400001","Hypermarché AUCHAN","Auchan"," Z.a.c. MontRenaud 60400 NOYON",49.570199200000005,2.9780855,"Carburant additivé|Toilettes publiques|Station de gonflage|Vente de gaz domestique (Butane, Propane)|Automate CB",True
"21130006","BP A39 AIRE DE PONT VAL DE SAONE","BP","A39 Aire de Val de Saone 21130 PONT",47.185673200000004,5.3350595,"Restauration à emporter|Carburant additivé|Restauration sur place|Toilettes publiques|Douches|Boutique alimentaire|Station de gonflage|Espace bébé|Boutique non alimentaire|Piste poids lourds",False
"3100002","Relais Lagarde Montluçon","Total","52 Rue Paul Constans 03100 MONTLUçON",46.343202000000005,2.5920148,"Carburant additivé|Toilettes publiques|Boutique alimentaire|Station de gonflage|Boutique non alimentaire|Services réparation / entretien|Vente de gaz domestique (Butane, Propane)|Lavage automatique",False
"77230001","EASY SERVICE","Total","ROUTE DE PARIS 77230 Villeneuve-sous-Dammartin",49.03344,2.63575,"Carburant additivé|Toilettes publiques|Boutique alimentaire|Station de gonflage|Boutique non alimentaire|Services réparation / entretien|Vente de gaz domestique (Butane, Propane)|Location de véhicule|Piste poids lourds|Automate CB|Lavage automatique|Lavage manuel|Vente de fioul domestique",True
"91630007","RELAIS DE TORFOU","Total Access","RN 20 DIRECTION PARIS 91630 AVRAINVILLE",48.562918100000005,2.2282745,"Restauration à emporter|Carburant additivé|Restauration sur place|Boutique alimentaire|Station de gonflage|Boutique non alimentaire|Vente de gaz domestique (Butane, Propane)|Piste poids lourds",False
"89116003","RELAIS DE LA COULINE","Total","AUTOROUTE A6  AIRE DE LA COULINE 89116 Précy-sur-Vrin",47.9739273,3.199661,"",False
"95000007","SARL SIGESS ESSO 3 FONTAINES","Esso","3 Avenue des Trois Fontaines 95000 Cergy",49.0386029,2.0846669999999996,"Carburant additivé|Toilettes publiques|Boutique alimentaire|Station de gonflage|Boutique non alimentaire|Services réparation / entretien|Vente de gaz domestique (Butane, Propane)|Location de véhicule|Relais colis|Piste poids lourds|Automate CB|Lavage automatique|Lavage manuel",True
"53400001","Super U CRAON ST CLEMENT","Système U","Z.A. LA PEPINIERE 53400 CRAON",47.8426648,-0.9706518,"Restauration sur place|Toilettes publiques|Bar|Station de gonflage|Laverie|Vente de gaz domestique (Butane, Propane)|Location de véhicule|Relais colis|Piste poids lourds|Automate CB|Lavage automatique|Lavage manuel|Vente d'additifs carburants|Automate CB 24/24",True
"13368001","GEANT CASINO La Valentine","Géant","Route de la Sablière 13011 Marseille",43.29485510000001,5.4799652000000005,"Carburant additivé|Station de gonflage|Vente de gaz domestique (Butane, Propane)|Automate CB|Lavage automatique|Lavage manuel",True
"77140011","RELAIS NEMOURS DE GAULLE","Total","10 AVENUE DU GENERAL DE GAULLE 77140 NEMOURS",48.2668592,2.7080412,"",False
"70000005","Station Ets DORMOY","Avia","Route de Paris 70000 VESOUL",47.633446500000005,6.1586865,"Restauration à emporter|Carburant additivé|Toilettes publiques|Boutique alimentaire|Station de gonflage|Boutique non alimentaire|Vente de gaz domestique (Butane, Propane)|Piste poids lourds|Automate CB|Lavage automatique|Automate CB 24/24",True
"63300007","PIREYRE FUEL","BIG APPLE","Rue Adrien Legay 63300 THIERS",45.8424112,3.5151315999999997,"Carburant additivé|Vente de gaz domestique (Butane, Propane)|Piste poids lourds|Automate CB|Vente de fioul domestique|Vente de pétrole lampant",True
"25420002","EURL NEDEY","Total","Rue de la Cray 25420 VOUJEAUCOURT",47.4797965,6.7774657000000005,"Carburant additivé|Boutique alimentaire|Station de gonflage|Boutique non alimentaire|Services réparation / entretien|Piste poids lourds|Automate CB|Lavage automatique|Lavage manuel",True
"40100008","RELAIS DAX CHAULET STAR","Total Access","RUE GEORGES CHAULET 40100 DAX",43.71675,-1.05161,"",False
"93150012","BP LE BLANC MESNIL PVC","BP","60  68 PAUL VAILLANT COUTURIER 93150 Le Blanc-Mesnil",48.9278044,2.4738176,"Carburant additivé|Boutique alimentaire|Station de gonflage|Boutique non alimentaire|Vente de gaz domestique (Butane, Propane)",False
"62280003","AUCHAN COTE D'OPALE","Auchan","Route Nationale 42 62280 SAINT-MARTIN-BOULOGNE",50.7327226,1.6685577,"Station de gonflage|Vente de gaz domestique (Butane, Propane)|Aire de camping-cars|Piste poids lourds|Automate CB|Vente de pétrole lampant",True
"19150002","SUPER U LAGUENNE","Système U","1 Avenue de Coulaud 19150 Laguenne",45.2456794,1.7734991000000002,"Restauration à emporter|Restauration sur place|Toilettes publiques|Bar|Boutique alimentaire|Station de gonflage|Boutique non alimentaire|Vente de gaz domestique (Butane, Propane)|Relais colis|Automate CB",True
"74000014","RELAIS DES ALLUEGES","Total Access","18 BD.DE LA ROCADE 74000 ANNECY",45.909296600000005,6.1177769,"",False
"49400004","INTERMARCHE SAUMUR","Intermarché","ZI EcoparcSaint Lambert des Levées 49400 SAUMUR",47.278913,-0.06624719999999999,"Restauration à emporter|Carburant additivé|Restauration sur place|Bar|Vente de gaz domestique (Butane, Propane)|Location de véhicule|Aire de camping-cars|Piste poids lourds|Automate CB|Lavage automatique|Lavage manuel|Vente de pétrole lampant|Automate CB 24/24",True
"22300001","GEANT CASINO","Géant","Route de Perros Guirec 22300 Lannion",48.7473456,-3.4594799,"Carburant additivé|Vente de gaz domestique (Butane, Propane)|Automate CB|Lavage automatique",True
"69500009","RELAIS BRONDILLANTS","Total Access","BD LAURENT BONNEVAY 69500 BRON",45.739149600000005,4.9050616,"Restauration à emporter|Carburant additivé|Restauration sur place|Toilettes publiques|Boutique alimentaire|Station de gonflage|Boutique non alimentaire|Vente de gaz domestique (Butane, Propane)|Piste poids lourds|Lavage automatique",False
"67170002","AIRE DE BRUMATH OUEST","CARAUTOROUTES","A4E AIRE DE BRUMATH OUEST 67170 BRUMATH",48.7246514,7.691256500000001,"Carburant additivé|Toilettes publiques|Douches|Boutique alimentaire|Station de gonflage|Espace bébé|Boutique non alimentaire|Piste poids lourds|Wifi",False
"80300006","RELAIS D'ALBERT","Total","164 AVENUE DU GENERAL FAIDHERBE 80300 ALBERT",50.0078799,2.6657116000000003,"Restauration à emporter|Carburant additivé|Boutique alimentaire|Station de gonflage|Vente de gaz domestique (Butane, Propane)|Piste poids lourds|Automate CB",True
"29000013","RELAIS QUIMPER CENTRE","Total Access","57 ROUTE DE BREST 29000 QUIMPER",48.0001307,-4.0895301,"",False
"50380001","GEANT CASINO ST PAIR SUR MER","Géant","Route d'Avranches 50380 SAINT-PAIR-SUR-MER",48.81422979999999,-1.544516,"Restauration à emporter|Restauration sur place|Toilettes publiques|Bar|Boutique alimentaire|Station de gonflage|Espace bébé|Boutique non alimentaire|Laverie|Vente de gaz domestique (Butane, Propane)|Piste poids lourds|Automate CB|Lavage automatique|Lavage manuel",True
"59658001","cora flers","CORA","18 rue jules guesde 59650 VILLENEUVE-D'ASCQ",50.6346062,3.1209279999999997,"Station de gonflage",False
"95480002","ESSO PIERRELAYE","Esso","AUTOROUTE A 15 95480 Pierrelaye",49.0153921,2.1463372000000005,"",False
"53100006","SARL MARTINEAU Luc","Indépendant sans enseigne","977 Rue de la Peyennière 53100 MAYENNE",48.2886182,-0.6112763000000001,"Station de gonflage|Location de véhicule",False
"33210001","SARL MERIDIENNE","Total","8 ROUTE DE VILLANDRAUT 33210 LANGON",44.5519107,-0.26460900000000004,"Restauration à emporter|Carburant additivé|Boutique alimentaire|Station de gonflage|Boutique non alimentaire|Services réparation / entretien|Vente de gaz domestique (Butane, Propane)|Relais colis|Piste poids lourds|Automate CB|Lavage automatique|Vente de fioul domestique",True
"1250002","BP A40 AIRE DE BOURG TEYSONGUE","BP","AIRE DE BOURG TEYSONGUE A 40 01250 Ceyzériat",46.2049654,5.2946281,"Restauration à emporter|Carburant additivé|Restauration sur place|Toilettes publiques|Douches|Boutique alimentaire|Station de gonflage|Espace bébé|Boutique non alimentaire|Piste poids lourds",False
"70000002","STATION TOTAL DU LAC","Total","18 Rue des Faines 70000 Noidans-lès-Vesoul",47.6229009,6.1381739,"Carburant additivé|Boutique alimentaire|Station de gonflage|Boutique non alimentaire|Services réparation / entretien|Vente de gaz domestique (Butane, Propane)|Piste poids lourds|Automate CB|Lavage automatique|Lavage manuel",True
"74130013","EURL HARAN CHRISTOPHE","Shell","Aire de Bonneville Nord  A40 74130 Bonneville",46.0654884,6.4097204,"Restauration à emporter|Carburant additivé|Toilettes publiques|Boutique alimentaire|Station de gonflage|Espace bébé|Piste poids lourds",False
"72300005","SIGREST PARCE OUEST","Shell","AUT A 11  AIRE DE PARCE OUEST 72300 Parcé-sur-Sarthe",47.80748679999999,-0.1671664,"Restauration à emporter|Carburant additivé|Restauration sur place|Toilettes publiques|Bar|Douches|Boutique alimentaire|Station de gonflage|Espace bébé|Boutique non alimentaire|Aire de camping-cars|Piste poids lourds|Automate CB",True
"34350003","TRUCK ETAPE","Indépendant sans enseigne","ZAC VIA EUROPA BEZIERS OUEST A9 SORTIE 36 34350 Vendres",43.295633,3.2177064,"Restauration à emporter|Carburant additivé|Restauration sur place|Toilettes publiques|Bar|Douches|Boutique alimentaire|Station de gonflage|Boutique non alimentaire|Laverie|Piste poids lourds|Vente de fioul domestique",False
"46100004","STATION SERVICE DES CARMES","Esso","4 Avenue du Général de Gaulle 46100 Figeac",44.611245700000005,2.0280047,"Carburant additivé|Toilettes publiques|Station de gonflage|Boutique non alimentaire|Piste poids lourds|Automate CB",True
"6600007","ETS SARL CHENEAU","Avia","136 Route de Nice 06600 ANTIBES",43.6012254,7.1225509,"Carburant additivé|Toilettes publiques|Boutique alimentaire|Station de gonflage|Boutique non alimentaire|Vente de gaz domestique (Butane, Propane)|Lavage manuel",False
"33120003","SARL THIBURCE GUY","Avia","7 Boulevard Mestrézat 33120 ARCACHON",44.652410700000004,-1.1468753999999999,"Restauration à emporter|Carburant additivé|Toilettes publiques|Boutique alimentaire|Station de gonflage|Services réparation / entretien|Vente de gaz domestique (Butane, Propane)|Location de véhicule|Lavage manuel",False
"56690004","RELAIS DE NOSTANG","Total Access","VE165  AIRE DE BOUL SAPIN 56690 NOSTANG",47.778675299999996,-3.1953034,"Restauration à emporter|Carburant additivé|Toilettes publiques|Boutique alimentaire|Station de gonflage|Piste poids lourds|Automate CB",True
"31140007","RELAIS DES CEDRES SAS","Elan","17 ROUTE DE FRONTON 31140 AUCAMVILLE",43.66006420000001,1.4314323999999998,"Toilettes publiques|Station de gonflage|Boutique non alimentaire|Services réparation / entretien|Vente de gaz domestique (Butane, Propane)|Piste poids lourds|Automate CB|Lavage automatique|Lavage manuel",True
"28000011","relais Total Chartres Mermoz","Total Access","34 rue jean mermoz 28000 chartres",48.449534899999996,1.5063868999999999,"Restauration à emporter|Carburant additivé|Boutique alimentaire|Station de gonflage|Boutique non alimentaire|Vente de gaz domestique (Butane, Propane)|Piste poids lourds|Automate CB|Lavage automatique|Vente d'additifs carburants|Wifi",True
"91250011","BP RN104 BUTTE GRAVOIS ST GERMAIN LES CORBEILS","BP","LIEUDIT BUTTE DE GRAVOIS RN104 91250 Saint-Germain-lès-Corbeil",48.6301153,2.4863537,"Restauration à emporter|Carburant additivé|Toilettes publiques|Boutique alimentaire|Station de gonflage|Boutique non alimentaire|Piste poids lourds|Lavage automatique",False
"24400003","station super u","Système U","rue du 11 juin 1944 24400 Saint-Médard-de-Mussidan",45.041735100000004,0.3519474,"Laverie|Vente de gaz domestique (Butane, Propane)|Location de véhicule|Piste poids lourds|Automate CB|Lavage automatique|Lavage manuel|Automate CB 24/24",True
"57500001","KL DISTRIBUTION","Total","Avenue du Général Patton 57500 SAINT-AVOLD",49.11886129999999,6.709678299999999,"Carburant additivé|Boutique alimentaire|Station de gonflage|Boutique non alimentaire|Vente de gaz domestique (Butane, Propane)|Piste poids lourds|Automate CB|Lavage automatique",True
"5000010","ESSO FONT REYNE","Esso Express"," Avenue de Provence 05000 GAP",44.5438048,6.0613788,"Carburant additivé",False
"26620001","SARL PARRON JEAN - AUTOMAT24","Avia","ROUTE DE SISTERON RD 1075 26620 LUS-LA-CROIX-HAUTE",44.6670662,5.697415400000001,"Restauration à emporter|Carburant additivé|Boutique alimentaire|Station de gonflage|Boutique non alimentaire|Services réparation / entretien|Piste poids lourds|Automate CB",True
"91460014","BP MARCOUSSIS FOND DES PRES","BP","F6 VOIE EXPRESS FONDS PRES 91460 Marcoussis",48.6383152,2.2021009,"Restauration à emporter|Carburant additivé|Toilettes publiques|Bar|Boutique alimentaire|Station de gonflage|Boutique non alimentaire|Piste poids lourds",False
"30104001","CORA","CORA","QUAI DU MAS D'HOURS 30100 ALèS",44.111159,4.0961400999999995,"Station de gonflage|Vente de gaz domestique (Butane, Propane)|Piste poids lourds|Automate CB",True
"22000001","GEANT CASINO","Géant","LES VILLAGES 22000 Saint-Brieuc",48.519873,-2.7924754000000003,"Carburant additivé|Station de gonflage|Laverie|Vente de gaz domestique (Butane, Propane)|Automate CB|Lavage automatique",True
"34000013","RELAIS LA LIRONDE","Elf","1160 AV. PIERRE MENDES FRANCE 34000 MONTPELLIER",43.6080875,3.9130199,"Carburant additivé|Boutique alimentaire|Station de gonflage|Vente de gaz domestique (Butane, Propane)|Relais colis|Automate CB|Lavage automatique",True
"38670001","GEANT CASINO","Géant","Avenue Frédéric Mistral 38670 Chasse-sur-Rhône",45.5739176,4.810645200000001,"Carburant additivé|Vente de gaz domestique (Butane, Propane)|Piste poids lourds|Automate CB",True
"68300002","SERVICE AUTO GARAGE BADER S.A.S.","Total","122 Rue de Mulhouse 68300 Saint-Louis",47.5931448,7.5556247,"Carburant additivé|Boutique alimentaire|Station de gonflage|Boutique non alimentaire|Services réparation / entretien|Piste poids lourds|Automate CB|Lavage automatique|Lavage manuel|Vente de fioul domestique",True
"4000001","CARREFOUR DIGNE","Carrefour","ROUTE DE MARSEILLE 04000 DIGNE-LES-BAINS",44.0763377,6.1880906,"Station de gonflage|Vente de gaz domestique (Butane, Propane)|Piste poids lourds|Lavage automatique|Lavage manuel",False
"13140002","Station services des molieres","Dyneff","route de salon 13140 Miramas",43.6018751,5.0072304,"Carburant additivé|Toilettes publiques|Boutique alimentaire|Station de gonflage|Services réparation / entretien|Vente de gaz domestique (Butane, Propane)|Piste poids lourds|Lavage manuel",False
"6201001","CARREFOUR NICE LINGOSTIERE","Carrefour","606 boulevard du mercantour 06200 Nice",43.7300408,7.1856985,"Station de gonflage|Vente de gaz domestique (Butane, Propane)|Piste poids lourds|Automate CB|Vente de pétrole lampant|Automate CB 24/24",True
"54300005","ESSO VITRIMONT","Esso","RN 333 54300 VITRIMONT",48.591055600000004,6.4252936,"",False
"85120002","SARL Fioul Services Vendéens - ANTIGNY","Avia","Z.I. de la Levraudière 85120 ANTIGNY",46.6380924,-0.755383,"Restauration à emporter|Carburant additivé|Boutique alimentaire|Station de gonflage|Boutique non alimentaire|Vente de gaz domestique (Butane, Propane)|Location de véhicule|Piste poids lourds|Automate CB|Vente de fioul domestique|Vente de pétrole lampant",True
"26780005","PETROLIMED DYNEFF","Dyneff","660 RN7 ZI COMBELIERE 26780 MALATAVERNE",44.468968700000005,4.763450700000001,"Restauration sur place|Toilettes publiques|Douches|Station de gonflage|Piste poids lourds|Automate CB|Vente de fioul domestique",True
"44530003","Super U ST GILDAS DES BOIS","Système U","route de Pontchâteau 44530 Saint-Gildas-des-Bois",47.5089203,-2.041032,"",False
"73140007","AGIP A43 SENS ALBERTILLIE TURIN AIRE ST MICHEL DE MAURIENNE","Agip","AIRE ST MICHEL DE MAURIENNE A43 SENS ALBERTVILLE TUNNEL FREJUS 73140 Saint-Martin-d'Arc",45.21757,6.4621,"Restauration à emporter|Carburant additivé|Restauration sur place|Toilettes publiques|Bar|Douches|Boutique alimentaire|Station de gonflage|Boutique non alimentaire",False
"78140001","STATION SERVICE AUCHAN VELIZY","Auchan","4 Rue Dewoitine 78140 VéLIZY-VILLACOUBLAY",48.7825256,2.2142479,"Carburant additivé|Station de gonflage|Vente de gaz domestique (Butane, Propane)|Automate CB|Lavage automatique|Lavage manuel",True
"30100009","","","173 Route de Nîmes 30100 ALèS",44.1140809,4.1010697,"Restauration à emporter|Carburant additivé|Restauration sur place|Boutique alimentaire|Boutique non alimentaire|Vente de gaz domestique (Butane, Propane)|Piste poids lourds|Automate CB",True
"42650001","BP RN 88 LA MAISON ROUGE ST JEAN BONNEFONDS","BP","LieuDit la Maison Rouge 42650 SAINT-JEAN-BONNEFONDS",45.445200899999996,4.4665555999999995,"Restauration à emporter|Carburant additivé|Restauration sur place|Toilettes publiques|Boutique alimentaire|Station de gonflage|Boutique non alimentaire|Piste poids lourds",False
"65000010","RELAIS TARBES URAC","Total Access","AVENUE DU MARECHAL JOFFRE 65000 TARBES",43.2397435,0.060343799999999996,"Carburant additivé|Boutique alimentaire|Station de gonflage|Boutique non alimentaire|Vente de gaz domestique (Butane, Propane)|Piste poids lourds|Automate CB|Lavage automatique|Lavage manuel",True
"86000013","SUPER U POITIERS","Système U","108 Avenue du 8 Mai 1945 86000 POITIERS",46.5583,0.3109,"Restauration à emporter|Station de gonflage|Piste poids lourds|Automate CB|Lavage automatique|Lavage manuel",True
"33700020","RELAIS DE PICHEY","Total","127 AV. DE L YSER 33700 MERIGNAC",44.8419338,-0.6645977,"",False
"15000012","AUVERGNE CARBURANTS","Avia"," Avenue de Conthe 15000 AURILLAC",44.9134437,2.4268478,"Carburant additivé|Automate CB|Vente de fioul domestique|Vente de pétrole lampant",True
"37100011","RELAIS TOURS AEROPORT","Total Access","RUE ABEL GANCE  ZAC DE L'AEROGA 37100 TOURS",47.4269,0.7104,"",False
"92210009","RELAIS ST CLOUD DASSAULT","Total Access","65 QUAI MARCEL DASSAULT 92210 Saint-Cloud",48.8549783,2.2224884,"",False
"58000005","AVIA LES DUCS","Avia","2 Rue de Vauzelles 58000 Nevers",47.000257500000004,3.1553447,"Carburant additivé|Toilettes publiques|Boutique alimentaire|Station de gonflage|Services réparation / entretien|Vente de gaz domestique (Butane, Propane)|Automate CB|Lavage automatique|Vente d'additifs carburants",True
"17138006","RELAIS PUILBOREAU","Total Access","AIRE DE SERVICE  RN 11 17138 PUILBOREAU",46.1765419,-1.1033263,"Restauration à emporter|Restauration sur place|Toilettes publiques|Boutique alimentaire|Station de gonflage|Espace bébé|Boutique non alimentaire|Piste poids lourds|Wifi",False
"73230001","AVIA ST ALBAN LEYSSE","Avia","319 Avenue de Chambéry 73230 SAINT-ALBAN-LEYSSE",45.573744399999995,5.9531351,"Carburant additivé|Boutique alimentaire|Station de gonflage|Boutique non alimentaire|Services réparation / entretien|Vente de gaz domestique (Butane, Propane)|Piste poids lourds|Automate CB|Lavage automatique|Lavage manuel|Vente de fioul domestique",True
"39570004","RN83 DISTRIBUTION SAS SUPER U","Système U","Espace Chantrans 39570 Montmorot",46.66999439999999,5.526395900000001,"Vente de gaz domestique (Butane, Propane)|Automate CB|Vente de pétrole lampant",True
"13610001","SARL WILLY","Total","LES GOIRANDS 13610 LE PUY-SAINTE-RéPARADE",43.6623554,5.4479052,"Restauration à emporter|Carburant additivé|Toilettes publiques|Boutique alimentaire|Station de gonflage|Boutique non alimentaire|Services réparation / entretien|Vente de gaz domestique (Butane, Propane)|Piste poids lourds|Automate CB|Lavage automatique|Lavage manuel|Vente de fioul domestique",True
"7130002","SARL JUCLEMAT","Avia","AVENUE GROSSUMSTADT 07130 Saint-Péray",44.943042299999995,4.8594462,"Carburant additivé|Boutique alimentaire|Station de gonflage|Services réparation / entretien|Vente de gaz domestique (Butane, Propane)|Relais colis|Lavage automatique",False
"33610005","INTERMARCHE CESTAS","Intermarché","Avenue de Verdun 33610 CESTAS",44.780012400000004,-0.6902543000000001,"Restauration à emporter|Carburant additivé|Restauration sur place|Toilettes publiques|Bar|Boutique alimentaire|Station de gonflage|Boutique non alimentaire|Services réparation / entretien|Laverie|Vente de gaz domestique (Butane, Propane)|Location de véhicule|Automate CB|Lavage automatique|Lavage manuel",True
"59100011","RELAIS ROUBAIX NATIONS UNIES","Total","660 AVENUE DES NATIONS UNIES 59100 ROUBAIX",50.69771,3.16534,"Carburant additivé|Boutique alimentaire|Station de gonflage|Vente de gaz domestique (Butane, Propane)|Automate CB|Lavage automatique|Lavage manuel",True
"77140012","Shell Darvault","Shell","Aire de Darvault A6 77140 Darvault",48.2644884,2.7222744,"Carburant additivé|Restauration sur place|Toilettes publiques|Douches|Boutique alimentaire|Station de gonflage|Espace bébé|Boutique non alimentaire|Piste poids lourds|Automate CB",True
"45520004","RELAIS ORLEANS GIDY","Total","A10 AIRE ORLEANS GIDY 45520 GIDY",47.9759515,1.8601288,"",False
"60230004","RELAIS NEFLIER","Total Access","RN1 ROUTE PARIS 60230 CHAMBLY",49.188183,2.2349452999999997,"Restauration à emporter|Carburant additivé|Restauration sur place|Toilettes publiques|Bar|Douches|Boutique alimentaire|Station de gonflage|Boutique non alimentaire|Vente de gaz domestique (Butane, Propane)|Piste poids lourds|Automate CB|Wifi|Automate CB 24/24",True
"54520001","Station Auchan","Auchan","rue de la Sapinière 54520 LAXOU",48.69207479999999,6.1279589,"Carburant additivé|Station de gonflage|Vente de gaz domestique (Butane, Propane)|Automate CB",True
"40260008","AVIA Ocean Ouest","Avia","A63 Aire de l'Ocean Ouest 40260 Lesperon",43.9369058,-1.0925063999999998,"Restauration à emporter|Restauration sur place|Toilettes publiques|Douches|Boutique alimentaire|Station de gonflage|Boutique non alimentaire|Aire de camping-cars|Piste poids lourds",False
"34500026","RELAIS L'HORT MONSEIGNEUR","Total Access","43 AVENUE RHIN ET DANUBE 34500 BEZIERS",43.3542701,3.2291671,"",False
"51200006","RELAIS SPARNACIENS","Total Access","13 BLD DE LA MOTTE 51200 EPERNAY",49.0464,3.95655,"Carburant additivé|Boutique alimentaire|Station de gonflage|Boutique non alimentaire|Vente de gaz domestique (Butane, Propane)|Relais colis|Piste poids lourds|Automate CB|Lavage automatique|Lavage manuel",True
"80230002","INTERMARCHE ST-VALERY-SUR-SOMME","Intermarché","Rue Cavée Lévesque 80230 Saint-Valery-sur-Somme",50.175196899999996,1.6378573,"Vente de gaz domestique (Butane, Propane)|Automate CB|Automate CB 24/24",True
"83300006","INTERMARCHE SUPER","Intermarché","526 Avenue Pierre Brossolette 83300 DRAGUIGNAN BROSSOLETTE",43.533038,6.448736,"Vente de gaz domestique (Butane, Propane)|Automate CB|Automate CB 24/24",True
"13320011","RELAIS LA CHAMPOUSE","Total","AUTOROUTE A51  AIRE DE LA CHAMPOUSE 13320 Bouc-Bel-Air",43.4416425,5.3954345,"",False
"71150003","SARL CLOCHEAU","Agip","RN6 71150 Chagny",46.9209828,4.7484137,"Boutique alimentaire|Station de gonflage|Vente de gaz domestique (Butane, Propane)|Piste poids lourds|Lavage automatique|Lavage manuel",False
"44119003","SHELL - DUPE TROLL","Shell","RN 137  Aire de Treillières Ouest 44119 Treillières",47.337838899999994,-1.6548573,"Restauration à emporter|Carburant additivé|Restauration sur place|Toilettes publiques|Douches|Boutique alimentaire|Station de gonflage|Espace bébé|Boutique non alimentaire",False
"47550009","SARL ALGUI","Esso","1500 Avenue du Docteur Jean Noguès 47550 BOE",44.1853181,0.6635916999999999,"Carburant additivé|Boutique alimentaire|Station de gonflage|Services réparation / entretien|Vente de gaz domestique (Butane, Propane)|Piste poids lourds|Automate CB|Lavage automatique|Lavage manuel|Vente de fioul domestique|Vente de pétrole lampant",True
"95370008","RELAIS MONTIGNY LES CORMEILLES","Total Access","177 BD VICTOR BORDIER 95370 Montigny-lès-Cormeilles",48.9968223,2.1889164,"Carburant additivé|Station de gonflage|Piste poids lourds|Automate CB",True
"59510003","RELAIS TROIS BAUDETS","Total Access","188 AV DU GENERAL DE GAULLE 59510 HEM",50.664905700000006,3.1827782000000004,"Carburant additivé|Boutique alimentaire|Station de gonflage|Boutique non alimentaire|Vente de gaz domestique (Butane, Propane)|Automate CB|Lavage automatique|Lavage manuel|Wifi|Automate CB 24/24",True
"69800012","BP AIRE DE SAINT PRIEST","BP","AUTOROUTE A43 AIRE DE SAINT PRIEST 69800 Saint-Priest",45.698398499999996,4.9741802999999996,"Restauration à emporter|Carburant additivé|Restauration sur place|Toilettes publiques|Douches|Boutique alimentaire|Station de gonflage|Espace bébé|Boutique non alimentaire|Automate CB",True
"22240001","SARL DUPRETZ","Total","LA NOE 22240 Plurien",48.6189599,-2.4224492000000004,"Carburant additivé|Boutique alimentaire|Station de gonflage|Boutique non alimentaire|Services réparation / entretien|Vente de gaz domestique (Butane, Propane)|Piste poids lourds|Automate CB|Lavage automatique|Lavage manuel|Vente d'additifs carburants|Wifi|Automate CB 24/24",True
"69310004","RELAIS PIERRE BENITE","Total","126 BOULEVARD DE L EUROPE 69310 Pierre-Bénite",45.697007799999994,4.8248891,"Restauration à emporter|Carburant additivé|Toilettes publiques|Boutique alimentaire|Station de gonflage|Boutique non alimentaire|Vente de gaz domestique (Butane, Propane)|Piste poids lourds|Lavage automatique|Lavage manuel",False
"7120001","SUPER U","Système U","Route de Vallon Pont d'Arc 07120 RUOMS",44.4426865,4.3488199,"Restauration à emporter|Restauration sur place|Toilettes publiques|Bar|Boutique alimentaire|Station de gonflage|Boutique non alimentaire|Laverie|Vente de gaz domestique (Butane, Propane)|Location de véhicule|Relais colis|Piste poids lourds|Automate CB|Lavage automatique|Lavage manuel|Vente de pétrole lampant",True
"27460001","SAS CLEMENCE 2","Système U","ROUTE DE LYONS 27460 IGOVILLE",49.3184891,1.1570238000000002,"Restauration à emporter|Restauration sur place|Toilettes publiques|Station de gonflage|Boutique non alimentaire|Vente de gaz domestique (Butane, Propane)|Location de véhicule|Piste poids lourds|Automate CB|Vente de fioul domestique|Vente de pétrole lampant",True
"73540003","Relais de tarentaise","Elan","aire de langon 399 rue de bompan 73540 La Bâthie",45.6120095,6.4501731,"Restauration à emporter|Carburant additivé|Restauration sur place|Boutique alimentaire|Espace bébé|Boutique non alimentaire|Piste poids lourds|Automate CB|Vente d'additifs carburants|Automate CB 24/24",True
"59113008","RELAIS PHALEMPIN","Total","AUTOROUTE A1  AIRE DE PHALEMPIN OUEST 59113 SECLIN",50.5325135,3.0462287999999997,"",False
"59700009","RELAIS MARCQ-EN-BAROEUL","Total Access","PARC DU CHEVAL BLANC 59700 MARCQ-EN-BAROEUL",50.6828567,3.0852861000000003,"Boutique alimentaire|Station de gonflage|Vente de gaz domestique (Butane, Propane)|Piste poids lourds|Automate CB|Lavage automatique|Lavage manuel",True
"47300002","SARL STATION PEJEAN","Total Access","224 Route de Bordeaux 47300 BIAS",44.4041218,0.6880510999999999,"Carburant additivé|Boutique alimentaire|Station de gonflage|Boutique non alimentaire|Services réparation / entretien|Piste poids lourds|Automate CB|Lavage automatique|Lavage manuel|Vente de fioul domestique",True
"53000011","RELAIS LA CLOSERIE","Total Access","248 RUE DE BRETAGNE 53000 LAVAL",48.0697658,-0.7941308000000001,"Restauration à emporter|Carburant additivé|Toilettes publiques|Boutique alimentaire|Station de gonflage|Boutique non alimentaire|Vente de gaz domestique (Butane, Propane)|Location de véhicule|Relais colis|Piste poids lourds|Automate CB|Lavage automatique",True
"13127012","ESSO VITROLLES LES PINS","Esso Express","BD VICTOR GELU 13127 VITROLLES",43.4456165,5.2467597999999995,"Carburant additivé|Station de gonflage|Piste poids lourds|Automate CB|Lavage automatique",True
"34990001","INTERMARCHE JUVIGNAC","Intermarché","Route de Saint Georges d'Orques 34990 JUVIGNAC",43.6135684,3.8091553,"Location de véhicule|Piste poids lourds|Automate CB|Bornes électriques|Automate CB 24/24",True
"69200007","BP VENISSIEUX","BP","61 Avenue de la République 69200 VéNISSIEUX",45.705789200000005,4.8776592,"Carburant additivé|Toilettes publiques|Boutique alimentaire|Station de gonflage|Boutique non alimentaire|Vente de gaz domestique (Butane, Propane)|Lavage automatique",False
"42410001","Saint-Michel","Indépendant sans enseigne","365 ROUTE DE VERLIEU 42410 Saint-Michel-sur-Rhône",45.4444624,4.7522820999999995,"Carburant additivé|Restauration sur place|Toilettes publiques|Bar|Boutique alimentaire|Station de gonflage|Boutique non alimentaire|Vente de gaz domestique (Butane, Propane)|Piste poids lourds|Automate CB|Vente de fioul domestique",True
"39100010","ETS THEVENIN DUCROT DISTRIBUTION","Avia","Boulevard des frères Lumière 39100 Dole",47.0984388,5.498986599999999,"Carburant additivé|Boutique alimentaire|Boutique non alimentaire|Vente de gaz domestique (Butane, Propane)|Relais colis|Automate CB",True
"33170004","AGIP GRADIGNAN A63 SENS BAYONNE VERS BORDEAUX","Agip","A 630 AIRE DE THOUARS 33170 GRADIGNAN",44.7864224,-0.5946609,"Carburant additivé|Toilettes publiques|Douches|Boutique alimentaire|Station de gonflage|Espace bébé",False
"83470006","RELAIS OLYMPE","Total Access","RN.7 ROUTE DE NICE 83470 Saint-Maximin-la-Sainte-Baume",43.4468492,5.8628852,"Restauration à emporter|Carburant additivé|Toilettes publiques|Boutique alimentaire|Station de gonflage|Boutique non alimentaire|Vente de gaz domestique (Butane, Propane)|Piste poids lourds|Automate CB|Lavage automatique|Lavage manuel",True
"13270013","RELAIS MARRONEDE","Total Access","ROUTE DE PORT DE BOUC RN 568 13270 Fos-sur-Mer",43.4278602,4.9655453000000005,"",False
"24750001","Hyper U Coop Atlantique Boulazac","Système U","allée Jacques Duclos 24750 BOULAZAC",45.1858249,0.7752666,"Restauration à emporter|Carburant additivé|Restauration sur place|Toilettes publiques|Bar|Boutique alimentaire|Station de gonflage|Boutique non alimentaire|Vente de gaz domestique (Butane, Propane)|Location de véhicule|Automate CB|Lavage automatique|Lavage manuel",True
"10270006","RELAIS FRESNOY LE CHÂTEAU","Total","AUTOROUTE A5  AIRE DE TROYESFRESNOYLECHÂTEAU 10270 Fresnoy-le-Château",48.211469,4.2419687,"Carburant additivé|Toilettes publiques|Douches|Boutique alimentaire|Station de gonflage|Espace bébé|Boutique non alimentaire|Aire de camping-cars|Piste poids lourds|Automate CB",True
"89132001","SARL AOUYAGUE","Avia","AUT A 6 89116 PRECY-SUR-VRIN",47.9741794,3.1974423,"Restauration à emporter|Carburant additivé|Toilettes publiques|Douches|Boutique alimentaire|Station de gonflage|Espace bébé|Boutique non alimentaire|Piste poids lourds|Automate CB|Automate CB 24/24",True
"34290003","SARL ROCAMAR","Shell","AUT A 9  AIRE DE MONTBLANC SUD 34290 SERVIAN",43.3589133,3.3458326,"Restauration à emporter|Carburant additivé|Restauration sur place|Toilettes publiques|Douches|Boutique alimentaire|Station de gonflage|Espace bébé|Boutique non alimentaire|Aire de camping-cars|Piste poids lourds|Automate CB|Wifi|Automate CB 24/24",True
"19100017","RELAIS DE VIALMUR","Total Access","90 AV RIBOT 19100 Brive-la-Gaillarde",45.1648452,1.5105572,"",False
"60300003","BP SENLIS DE GAULLE","BP","64 Avenue du Général de Gaulle 60300 Senlis",49.2083632,2.602346,"Carburant additivé|Toilettes publiques|Station de gonflage|Vente de gaz domestique (Butane, Propane)|Piste poids lourds|Automate CB|Automate CB 24/24",True
"68600001","GARAGE DU STADE BIESHEIM","Total","ZONE INDUSTRIEL.DE BIESHEIM CD52 68600 NEUF-BRISACH",48.0433656,7.5561457999999995,"Vente de fioul domestique",False
"95310011","RELAIS DES OZIERS","Total","RN 184  ZI VERT GALANT 95310 Saint-Ouen-l'Aumône",49.0482408,2.1329751,"Carburant additivé|Toilettes publiques|Boutique alimentaire|Station de gonflage|Boutique non alimentaire|Vente de gaz domestique (Butane, Propane)|Piste poids lourds|Lavage automatique|Lavage manuel",False
"2400005","INTERMARCHE CHATEAU-THIERRY","Intermarché","22 Avenue de l'Europe 02400 Château-Thierry",49.0345691,3.3918224,"Vente de gaz domestique (Butane, Propane)|Automate CB",True
"42120002","SARL GARAGE MULSANT","Avia","52 Boulevard Charles de Gaulle 42120 LE COTEAU",46.010979999999996,4.0970699999999995,"Restauration à emporter|Carburant additivé|Toilettes publiques|Boutique alimentaire|Station de gonflage|Boutique non alimentaire|Services réparation / entretien|Vente de gaz domestique (Butane, Propane)|Piste poids lourds|Vente d'additifs carburants",False
"3800006","SA SAIVE","Intermarché","12 avenue des Portes Occitanes 03800 Gannat",46.0793691,3.2011403,"Carburant additivé|Toilettes publiques|Station de gonflage|Boutique non alimentaire|Services réparation / entretien|Vente de gaz domestique (Butane, Propane)|Location de véhicule|Relais colis|Piste poids lourds|Lavage automatique|Lavage manuel",False
"33340002","SARL BECCAVIN","Total"," Avenue de Bordeaux 33340 LESPARRE-MéDOC",45.3012594,-0.9339028,"Restauration à emporter|Carburant additivé|Toilettes publiques|Boutique alimentaire|Station de gonflage|Boutique non alimentaire|Vente de gaz domestique (Butane, Propane)|Piste poids lourds|Lavage automatique|Lavage manuel",False
"75020011","RELAIS PORTE DE MONTREUIL","Total","Avenue Benoît Frachon 75020 Paris",48.853533299999995,2.415118,"Carburant additivé|Toilettes publiques|Boutique alimentaire|Station de gonflage|Boutique non alimentaire|Automate CB|Lavage automatique",True
"31130008","RELAIS BALMA AV DE TOULOUSE","Total Access","43 AVENUE DES AEROSTIERS 31130 BALMA",43.609713,1.4925313,"Restauration à emporter|Carburant additivé|Restauration sur place|Toilettes publiques|Boutique alimentaire|Station de gonflage|Boutique non alimentaire|Services réparation / entretien|Relais colis|Automate CB|Lavage automatique|Lavage manuel",True
"46000011","SAS SOGEROUEST","Avia","43 Avenue du 7ème R.I. 46000 Cahors",44.456698200000005,1.4365276000000002,"Carburant additivé|Boutique alimentaire|Station de gonflage|Boutique non alimentaire|Vente de gaz domestique (Butane, Propane)|Location de véhicule|Lavage automatique",False
"37700010","RELAIS DU ROCHIN","Total","76 QUAI DE LA LOIRE 37700 ST PIERRE DES CORPS",47.3967,0.7169,"Carburant additivé|Boutique alimentaire|Station de gonflage|Boutique non alimentaire|Lavage automatique",False
"78680004","RELAIS DE LA MAULDRE","Total Access","ROUTE DE GARGENVILLE 78680 EPONE",48.9614699,1.8123612,"Restauration à emporter|Carburant additivé|Toilettes publiques|Boutique alimentaire|Station de gonflage|Boutique non alimentaire|Vente de gaz domestique (Butane, Propane)|Piste poids lourds|Automate CB|Lavage automatique|Lavage manuel",True
"45190011","AGIP A10 AIRE MEUNG SUR LOIRE","Agip","SENS ORLEANS TOURS 45190 MESSAS",47.8208848,1.6415388,"Restauration à emporter|Carburant additivé|Restauration sur place|Toilettes publiques|Douches|Boutique alimentaire|Station de gonflage|Espace bébé|Boutique non alimentaire|Aire de camping-cars|Piste poids lourds",False
"27370001","SA GGE DOLPIERRE","Total","Rue de la République 27370 AMFREVILLE-LA-CAMPAGNE",49.207295,0.9352971,"Toilettes publiques|Boutique alimentaire|Station de gonflage|Boutique non alimentaire|Vente de gaz domestique (Butane, Propane)|Location de véhicule|Piste poids lourds|Automate CB|Lavage automatique|Lavage manuel|Vente de pétrole lampant|Vente d'additifs carburants|Automate CB 24/24",True
"1430005","RELAIS DE CEIGNES CERDON","Total","AUTOROUTE A40  AIRE DE CEIGNES CERDON 01430 CEIGNES",46.114798,5.4906417,"",False
"62630004","LECLERC ETAPLES","Leclerc","CD 940 62630 Étaples-sur-Mer",50.5255626,1.6283841000000001,"Boutique alimentaire|Laverie|Vente de gaz domestique (Butane, Propane)|Location de véhicule|Relais colis|Automate CB|Lavage automatique|Lavage manuel|Automate CB 24/24",True
"11260001","INTERMARCHE ESPERAZA","Intermarché","Route de Quillan 11260 Espéraza",42.938,2.2359999999999998,"Carburant additivé|Station de gonflage|Vente de gaz domestique (Butane, Propane)|Piste poids lourds|Automate CB|Lavage automatique|Lavage manuel|Vente de fioul domestique|Vente de pétrole lampant",True
"84300011","RELAIS BAS BANQUETS","Total Access","264 AVENUE DE CHEVAL BLANC 84300 CAVAILLON",43.830968,5.0543962,"",False
"11400001","GEANT CASINO","Géant","129 AVENUE MONSEIGNEUR DELANGLE 11400 Castelnaudary",43.3115774,1.9692613,"Carburant additivé|Station de gonflage|Vente de gaz domestique (Butane, Propane)|Automate CB",True
"17920001","STATION AVIA","Avia","46 route du Magarin 17920 BREUILLET",45.6989045,-1.0530787,"Carburant additivé|Automate CB",True
"80210002","EOR GARAGE DU VIMEU SA","Total","ZONE INDUSTRIELLE 80210 FEUQUIèRES-EN-VIMEU",50.067147399999996,1.6068266000000002,"Carburant additivé|Toilettes publiques|Station de gonflage|Boutique non alimentaire|Services réparation / entretien|Location de véhicule|Piste poids lourds|Automate CB|Lavage automatique|Lavage manuel|Vente de fioul domestique",True
"21220004","ESSO GEVREY EST","Esso","A31/E17/E21 21220 GEVREY-CHAMBERTIN",47.222380799999996,5.009475800000001,"Carburant additivé|Restauration sur place|Toilettes publiques|Douches|Boutique alimentaire|Station de gonflage|Espace bébé|Boutique non alimentaire|Piste poids lourds",False
"44210002","INTERMARCHE PORNIC","Intermarché","Route de Nantes  44210 PORNIC",47.1114876,-2.0702613000000003,"Vente de gaz domestique (Butane, Propane)|Automate CB|Lavage manuel",True
"91400010","RELAIS ENGOULEVENTS","Total Access","ROUTE DE PARIS RN 118 91400 SACLAY",48.73574779999999,2.1743556,"Restauration à emporter|Carburant additivé|Toilettes publiques|Boutique alimentaire|Station de gonflage|Boutique non alimentaire|Vente de gaz domestique (Butane, Propane)|Automate CB",True
"78550004","SARL JCS","Avia","RN12 E12LE VAL RAYMOND 78550 Maulette",48.7925072,1.6320146,"Restauration à emporter|Carburant additivé|Restauration sur place|Toilettes publiques|Bar|Douches|Boutique alimentaire|Station de gonflage|Espace bébé|Piste poids lourds|Automate CB",True
"29290001","Carrefour ST RENAN","Carrefour","RUE DU PONT DE BOIS 29290 Saint-Renan",48.428799299999994,-4.6135458,"",False
"33380001","AUCHAN BIGANOS","Auchan"," Rue des Fonderies 33380 BIGANOS",44.6367768,-0.9597739,"Vente de gaz domestique (Butane, Propane)|Piste poids lourds|Automate CB|Vente de pétrole lampant",True
"49430001","Super U DURTAL","Système U","13 RUE DES FRÈRES LUMIERES 49430 DURTAL",47.6624753,-0.243982,"",False
"27310006","SARL GASOLINA","Shell","Autoroute a13Aire du Bosgouet 27310 BOSGOUET",49.3611722,0.8650334000000001,"Restauration à emporter|Carburant additivé|Restauration sur place|Toilettes publiques|Bar|Douches|Boutique alimentaire|Station de gonflage|Espace bébé|Boutique non alimentaire",False
"95610008","BP ERAGNY LES BELLEVUES","BP","ROUTE NATIONALE 184 95610 Eragny-sur-Oise",49.026,2.104,"Carburant additivé|Toilettes publiques|Boutique alimentaire|Station de gonflage|Boutique non alimentaire|Services réparation / entretien|Vente de gaz domestique (Butane, Propane)",False
"11480001","AIRE DE LA PALME OUEST","Carrefour","A9 AIRE DE LA PALME OUEST 11480 LA PALME",42.9505521,2.9699031000000002,"Restauration à emporter|Carburant additivé|Restauration sur place|Toilettes publiques|Bar|Douches|Boutique alimentaire|Station de gonflage|Espace bébé|Boutique non alimentaire|Aire de camping-cars|Piste poids lourds",False
"80200012","BP ASSEVILLERS EST","BP","Autoroute A1  Aire d'Assevillers Est 80200 Péronne",49.8888459,2.8405937000000003,"Restauration à emporter|Carburant additivé|Toilettes publiques|Douches|Boutique alimentaire|Station de gonflage|Espace bébé|Boutique non alimentaire|Piste poids lourds",False
"21320005","CHIEN BLANC","Avia","Aire du Chien Blanc Autoroute A6 21320 POUILLY-EN-AUXOIS",47.3149305,4.4960512,"Carburant additivé|Toilettes publiques|Douches|Boutique alimentaire|Station de gonflage|Espace bébé|Laverie|Aire de camping-cars|Piste poids lourds|Automate CB",True
"15600001","SARL GGE LAVIGNE","Total"," Avenue de Bagnac 15600 MAURS",44.7090705,2.1957265,"Carburant additivé|Station de gonflage|Boutique non alimentaire|Services réparation / entretien|Vente de gaz domestique (Butane, Propane)|Location de véhicule|Piste poids lourds|Automate CB|Lavage automatique|Lavage manuel|Vente de fioul domestique",True
"60200011","SARL MLD","TOTAL","Avenue de l' Europe 60200 Compiègne",49.386250200000006,2.7848279,"Restauration à emporter|Carburant additivé|Restauration sur place|Toilettes publiques|Boutique alimentaire|Station de gonflage|Boutique non alimentaire|Piste poids lourds|Automate CB|Lavage automatique|Lavage manuel",True
"44800004","E.LECLERC ATLANTIS","Leclerc","Zone Atlantis 44800 Saint-Herblain",47.2260686,-1.6343649,"Station de gonflage|Boutique non alimentaire|Vente de gaz domestique (Butane, Propane)|Automate CB|Lavage automatique|Vente de pétrole lampant",True
"55190003","RELAIS PORTE DE MEUSE","Total Access","ROUTE DÉPARTEMENTALE 36D 55190 PAGNY SUR MEUSE",48.6853885,5.725721599999999,"Restauration à emporter|Carburant additivé|Restauration sur place|Toilettes publiques|Douches|Boutique alimentaire|Station de gonflage|Espace bébé|Boutique non alimentaire|Vente de gaz domestique (Butane, Propane)|Piste poids lourds",False
"34000010","AGIP MONTPELLIER TOURNEZY","Agip","ZAC DE TOURNEZY 34070 MONTPELLIER",43.5788519,3.8767817000000004,"Carburant additivé|Toilettes publiques|Boutique alimentaire|Station de gonflage|Vente de gaz domestique (Butane, Propane)|Lavage automatique",False
"45500001","AUCHAN GIEN","Auchan","Rue de la Fabrique 45500 GIEN",47.6878661,2.6205722000000002,"Restauration à emporter|Carburant additivé|Restauration sur place|Toilettes publiques|Bar|Boutique alimentaire|Espace bébé|Boutique non alimentaire|Laverie|Vente de gaz domestique (Butane, Propane)|Relais colis|Automate CB",True
"4000004","INTERMARCHE DIGNE","Intermarché","8 avenue du 8 Mai 1945 04000 Digne-les-Bains",44.0896945,6.2370781,"Station de gonflage|Vente de gaz domestique (Butane, Propane)",False
"94200008","RELAIS IVRY S/ SEINE STADE","Total","168180 BLD DE STALINGRAD 94200 Ivry-sur-Seine",48.8060386,2.3762508999999996,"Carburant additivé|Toilettes publiques|Boutique alimentaire|Station de gonflage|Boutique non alimentaire|Relais colis|Automate CB|Lavage automatique|Lavage manuel",True
"77130010","STATION SHELL JONCHETS LES RECOMPENSES A5","Shell","AIRE JONCHETS LES RECOMPENSES 77130 FORGES",48.42868920000001,2.9326644,"Carburant additivé|Toilettes publiques|Douches|Boutique alimentaire|Station de gonflage|Espace bébé|Boutique non alimentaire|Aire de camping-cars|Piste poids lourds",False
"69220007","SHELL Taponas","Shell","Aire de Taponas  A 6 69220 Taponas",46.134717200000004,4.7673084,"Carburant additivé|Toilettes publiques|Douches|Boutique alimentaire|Espace bébé|Boutique non alimentaire|Piste poids lourds",False
"72400005","Station Avia Opel La Ferté Bernard","Avia","RD 323 72400 CHERRE",48.174105299999994,0.6523074999999999,"Carburant additivé|Toilettes publiques|Station de gonflage|Boutique non alimentaire|Services réparation / entretien|Vente de gaz domestique (Butane, Propane)|Location de véhicule|Piste poids lourds|Vente d'additifs carburants",False
"73490002","SAS SUPER GRANIER","Système U","rue du pré Renaud 73490 LA RAVOIRE",45.5633901,5.9655579,"Station de gonflage|Laverie|Vente de gaz domestique (Butane, Propane)|Location de véhicule|Piste poids lourds|Automate CB|Lavage automatique|Lavage manuel|Bornes électriques",True
"59430001","CARREFOUR SAINT POL SUR MER","Carrefour","Rue de la République 59430 Dunkerque",51.0232165,2.3400244999999997,"Station de gonflage|Vente de gaz domestique (Butane, Propane)|Piste poids lourds|Automate CB",True
"40530001","ESSO LABENNE OUEST","Esso","AUTOROUTE A63 COTE OUEST 40530 Labenne",43.587010299999996,-1.4206478,"",False
"6211001","GEANT CASINO","Géant","Avenue de Fréjus 06210 Mandelieu-la-Napoule",43.533415500000004,6.9337917000000004,"Carburant additivé|Station de gonflage|Vente de gaz domestique (Butane, Propane)|Automate CB|Lavage automatique|Lavage manuel",True
"31450001","AIRE DE TOULOUSE SUD/NORD","CARAUTOROUTES","A61 AIRE DE TOULOUSE SUD/NORD 31450 DEYME",43.485544899999994,1.5496241000000002,"Restauration à emporter|Carburant additivé|Restauration sur place|Toilettes publiques|Douches|Boutique alimentaire|Station de gonflage|Espace bébé|Boutique non alimentaire|Piste poids lourds|Vente d'additifs carburants|Wifi",False
"77600003","RELAIS BUSSY ST GEORGES","Total","AUTOROUTE A4  AIRE DE BUSSY ST GEORGES 77600 Bussy-Saint-Georges",48.8303365,2.7460663,"",False
"54200005","BMCV SARL","Avia","2 Rue Paul Keller 54200 TOUL",48.672892700000006,5.8863093,"Carburant additivé|Boutique alimentaire|Station de gonflage|Boutique non alimentaire|Vente de gaz domestique (Butane, Propane)|Location de véhicule|Relais colis|Lavage automatique",False
"83400001","GEANT CASINO","Géant","Chemin du Roubaud 83400 HYèRES",43.114868900000005,6.1101209,"Carburant additivé|Vente de gaz domestique (Butane, Propane)|Automate CB|Lavage automatique|Lavage manuel",True
"21121001","GEANT CASINO","Géant","1 Rue Les Près Potets 21121 Fontaine-lès-Dijon",47.3558727,5.0332147,"Carburant additivé|Restauration sur place|Toilettes publiques|Bar|Boutique alimentaire|Boutique non alimentaire|Vente de gaz domestique (Butane, Propane)|Piste poids lourds|Automate CB|Lavage automatique|Vente de pétrole lampant",True
"42700001","GEANT CASINO","Géant","Rue de Chazeau 42700 FIRMINY",45.3793657,4.275814,"Carburant additivé|Vente de gaz domestique (Butane, Propane)|Automate CB|Automate CB 24/24",True
"30900017","RELAIS NIMES AGEL","Total Access","2705 RTE DE MONTPELLIER 30900 NIMES",43.8100818,4.3294265,"Carburant additivé|Boutique alimentaire|Station de gonflage|Vente de gaz domestique (Butane, Propane)|Automate CB|Lavage automatique",True
"1370001","SARL CIRA DISTRIBUTION","Total","395 route de Bourg 01370 SAINT-ÉTIENNE-DU-BOIS",46.281036799999995,5.288662599999999,"Restauration à emporter|Carburant additivé|Boutique alimentaire|Station de gonflage|Boutique non alimentaire|Services réparation / entretien|Vente de gaz domestique (Butane, Propane)|Piste poids lourds|Lavage automatique|Lavage manuel",False
"73260001","SUPER SAS CHARDIS","Système U","325 RUE DE LA PETITE PRAIRIE 73260 AIGUEBLANCHE",45.503,6.5000599999999995,"Restauration à emporter|Toilettes publiques|Bar|Boutique alimentaire|Station de gonflage|Services réparation / entretien|Laverie|Vente de gaz domestique (Butane, Propane)|Location de véhicule|Relais colis|Aire de camping-cars|Piste poids lourds|Automate CB|Lavage manuel|Vente de pétrole lampant",True
"44119005","RELAIS TREILLIERES","Total","ROUTE NATIONALE 137  AIRE DE TREILLIÈRES 44119 TREILLIERES",47.3359456,-1.6527793000000002,"Carburant additivé|Toilettes publiques|Douches|Boutique alimentaire|Station de gonflage|Espace bébé|Boutique non alimentaire|Piste poids lourds",False
"22000011","RELAIS APOLLINAIRE","Total Access","RUE GUILLAUME APOLLINAIRE 22000 Saint-Brieuc",48.497791799999995,-2.7453833,"Carburant additivé|Boutique alimentaire|Station de gonflage|Boutique non alimentaire|Vente de gaz domestique (Butane, Propane)|Piste poids lourds|Automate CB|Lavage automatique|Lavage manuel",True
"54182001","CORA HOUDEMONT","CORA","RD 570 54180 HEILLECOURT",48.6409588,6.1830517,"Station de gonflage|Vente de gaz domestique (Butane, Propane)|Automate CB",True
"40530002","ESSO LABENNE EST","Esso","AUTOROUTE A63 COTE EST 40530 Labenne",43.585359999999994,-1.4197,"",False
"93800006","RELAIS CLAUD.DEBUSSY","Total","53 ROUTE DE SAINT LEU 93800 Épinay-sur-Seine",48.948407200000005,2.3427555,"Restauration à emporter|Carburant additivé|Boutique alimentaire|Station de gonflage|Boutique non alimentaire|Vente de gaz domestique (Butane, Propane)|Piste poids lourds|Automate CB|Lavage automatique|Lavage manuel",True
"28310010","SHELL PLAINES DE BEAUCE","Shell","A10 AIRE DES PLAINES DE BEAUCE 28310 Fresnay-l'Évêque",48.2752106,1.8555697,"Restauration à emporter|Carburant additivé|Toilettes publiques|Douches|Boutique alimentaire|Station de gonflage|Espace bébé|Boutique non alimentaire|Piste poids lourds|Automate CB|Bornes électriques|Wifi",True
"36150004","BP A20 AIRE DES CHAMPS D' AMOUR","BP","A20 AIRE DES CHAMPS D' AMOUR 36150 Meunet-sur-Vatan",47.0902809,1.8449813999999998,"Restauration à emporter|Carburant additivé|Toilettes publiques|Douches|Boutique alimentaire|Station de gonflage|Espace bébé|Boutique non alimentaire|Aire de camping-cars|Piste poids lourds",False
"89340004","BELLA AUTO SERVICE","Esso","150 RN6 le petit Villeblevin 89340 Villeblevin",48.335958000000005,3.0801781000000004,"Restauration à emporter|Carburant additivé|Restauration sur place|Toilettes publiques|Bar|Boutique alimentaire|Station de gonflage|Boutique non alimentaire|Services réparation / entretien|Vente de gaz domestique (Butane, Propane)|Piste poids lourds|Lavage automatique|Lavage manuel|Vente de fioul domestique|Vente de pétrole lampant",False
"13124002","ROMPETROL Peypin","ROMPETROL","A52 Aire de Peypin 13124 PEYPIN",43.4010294,5.5758731,"Restauration à emporter|Toilettes publiques|Douches|Boutique alimentaire|Station de gonflage|Espace bébé|Boutique non alimentaire",False
"52200014","RELAIS DE LA COLLINIERE","Total Access","FAUBOURG DE LA COLLINIERE 52200 LANGRES",47.8699086,5.3287024,"Carburant additivé|Boutique alimentaire|Station de gonflage|Vente de gaz domestique (Butane, Propane)|Relais colis|Piste poids lourds",False
"77165006","RELAIS DU SAUVOY","Total","RN 330  ROUTE DE MEAUX 77165 ST SOUPPLETS",49.0335552,2.804664,"",False
"3410001","AUCHAN CARBURANT MONTLUCON-DOMERAT","Auchan","65 Avenue des Martyrs 03410 MONTLUCON-DOMERAT",46.338362100000005,2.5673963,"Restauration à emporter|Carburant additivé|Restauration sur place|Toilettes publiques|Bar|Boutique alimentaire|Station de gonflage|Espace bébé|Boutique non alimentaire|Vente de gaz domestique (Butane, Propane)|Automate CB|Vente de pétrole lampant",True
"57140003","ESSO SAINT-REMY","Esso","AUTOROUTE A31 57140 Woippy",49.1800813,6.1763542000000005,"Restauration à emporter|Restauration sur place|Toilettes publiques|Douches|Boutique alimentaire|Station de gonflage|Espace bébé|Piste poids lourds",False
"59710006","NEW STATION","Total Access","81 Rue de Seclin 59710 Avelin",50.54039,3.0737400000000004,"Carburant additivé|Toilettes publiques|Boutique alimentaire|Station de gonflage|Vente de gaz domestique (Butane, Propane)|Piste poids lourds|Automate CB|Lavage automatique|Lavage manuel",True
"63370001","CORA","CORA","26 Avenue de l Europe 63370 LEMPDES",45.7774472,3.1968612000000003,"Restauration à emporter|Restauration sur place|Toilettes publiques|Bar|Boutique alimentaire|Station de gonflage|Espace bébé|Boutique non alimentaire|Services réparation / entretien|Laverie|Vente de gaz domestique (Butane, Propane)|Location de véhicule|Relais colis|Automate CB|Lavage automatique|Wifi|Automate CB 24/24",True
"60300007","RELAIS 3 FORETS","Total","64/66 AV. MAL FOCH 60300 SENLIS",49.210882500000004,2.5930507,"",False
"60100003","SARL ACC2","Avia","16 ROUTE DE CHANTILLY LA PIERRE BLANCHE 60100 CREIL",49.2480581,2.4765268,"Restauration à emporter|Carburant additivé|Boutique alimentaire|Station de gonflage|Boutique non alimentaire|Vente de gaz domestique (Butane, Propane)|Location de véhicule|Piste poids lourds|Automate CB|Lavage automatique",True
"51100048","RELAIS REIMS BREBANT","Total Access","12 AVENUE BREBANT 51100 REIMS",49.2547334,4.016974299999999,"",False
"7250004","Station avia méhari sun","Avia","route de loriol 07250 LE POUZIN",44.756,4.758,"Carburant additivé|Station de gonflage|Boutique non alimentaire|Piste poids lourds",False
"31600001","SUPER U","Système U","2 Boulevard de la leze 31600 EAUNES",43.4197701,1.3736788,"Station de gonflage|Vente de gaz domestique (Butane, Propane)|Location de véhicule|Piste poids lourds|Automate CB|Lavage automatique|Lavage manuel",True
"37380003","BP A10 AIRE DE TOURS LA LONGUE VUE","BP","AUTOROUTE A10 AIRE DE LA BRUNELLERIE 37380 Monnaie",47.4758645,0.7769067,"Restauration à emporter|Carburant additivé|Restauration sur place|Toilettes publiques|Douches|Boutique alimentaire|Station de gonflage|Espace bébé|Boutique non alimentaire|Piste poids lourds",False
"33240001","GEANT CASINO","Géant","ZI DE LA GAROSSE 33240 SAINT-ANDRé-DE-CUBZAC",45.012764399999995,-0.4249249,"Carburant additivé|Station de gonflage|Vente de gaz domestique (Butane, Propane)|Automate CB|Lavage automatique",True
"59113007","Aire de Phalempin-Est","Avia","Autoroute A 1 59113 SECLIN",50.5288101,3.045791,"Restauration à emporter|Carburant additivé|Restauration sur place|Toilettes publiques|Bar|Douches|Boutique alimentaire|Station de gonflage|Espace bébé|Boutique non alimentaire|Aire de camping-cars|Piste poids lourds|Bornes électriques|Vente d'additifs carburants|Wifi",False
"85110001","Hyper U CHANTONNAY","Système U","45 AV G. CLEMENCEAU 85110 CHANTONNAY",46.681415799999996,-1.0489624,"Restauration sur place|Toilettes publiques|Bar|Boutique alimentaire|Station de gonflage|Boutique non alimentaire|Laverie|Vente de gaz domestique (Butane, Propane)|Location de véhicule|Relais colis|Piste poids lourds|Automate CB|Lavage automatique|Lavage manuel|Automate CB 24/24",True
"63100003","STATION AUCHAN","Auchan","Boulevard Etienne Clementel 63100 CLERMONT-FERRAND",45.8140159,3.1089835,"Restauration à emporter|Carburant additivé|Restauration sur place|Toilettes publiques|Boutique alimentaire|Station de gonflage|Boutique non alimentaire|Vente de gaz domestique (Butane, Propane)|Piste poids lourds|Automate CB|Bornes électriques|Automate CB 24/24",True
"95331002","BP DOMONT","BP","RN 1  BP4 95331 Domont",49.0278214,2.347044,"Carburant additivé|Toilettes publiques|Boutique alimentaire|Station de gonflage|Boutique non alimentaire|Lavage automatique",False
"25220002","Avia","Avia","RN 73 25220 CHALEZEULE",47.2638204,6.0582566,"Restauration à emporter|Carburant additivé|Restauration sur place|Toilettes publiques|Bar|Boutique alimentaire|Station de gonflage|Services réparation / entretien|Vente de gaz domestique (Butane, Propane)|Location de véhicule|Piste poids lourds|Automate CB|Lavage automatique",True
"28500008","RELAIS DU BOIS DE VERT","Total Access","RN 12 COTE NORD 28500 Vert-en-Drouais",48.748285100000004,1.2724216,"Restauration à emporter|Carburant additivé|Restauration sur place|Toilettes publiques|Bar|Douches|Boutique alimentaire|Station de gonflage|Espace bébé|Boutique non alimentaire|Piste poids lourds|Automate CB",True
"31220001","SUPER U","Système U","Avenue des Pyrénées 31220 MARTRES-TOLOSANE",43.1955596,1.0028163,"Carburant additivé|Vente de gaz domestique (Butane, Propane)|Piste poids lourds|Automate CB|Lavage automatique|Lavage manuel|Vente de pétrole lampant",True
"8000006","CORA VILLERS-SEMEUSE","CORA","Route de Sedan  ZI des AYVELLES 08000 Villers-Semeuse",49.732659999999996,4.753189,"Carburant additivé|Vente de gaz domestique (Butane, Propane)|Piste poids lourds|Automate CB|Vente de fioul domestique",True
"44370009","REL.VARADES PAYS DE LOIRE","Total","A11  AIRE DE VARADES PAYS DE LOIRE 44370 VARADES",47.4194802,-1.0144251,"",False
"86130009","AVIA Jaunay Clan","Avia","Autoroute A10  Aire de Poitiers Jaunay Clan 86130 Jaunay-Clan",46.70163839999999,0.3668032,"Restauration à emporter|Carburant additivé|Restauration sur place|Toilettes publiques|Douches|Boutique alimentaire|Station de gonflage|Espace bébé|Boutique non alimentaire|Aire de camping-cars|Piste poids lourds|Automate CB",True
"22120002","SARL JERNAD22","Avia","RTE N 12 22120 Hillion",48.478988,-2.6251764,"Restauration à emporter|Carburant additivé|Restauration sur place|Toilettes publiques|Bar|Boutique alimentaire|Station de gonflage|Boutique non alimentaire|Piste poids lourds|Automate CB",True
"14400004","ESSO MONTGOMERY","Esso Express","BOULEVARD MONTGOMERY 14400 Bayeux",49.270981799999994,-0.6942606,"",False
"67300003","RELAIS DE L' AAR","Total Access","AV PIERRE MENDES FRANCE 67300 SCHILTIGHEIM",48.6038843,7.7582739,"Carburant additivé|Boutique alimentaire|Station de gonflage|Automate CB|Lavage automatique|Lavage manuel",True
"13100018","BP AIX EN PROVENCE MAL JUIN 8 à Huit","BP","1 BL MARECHAL JUIN 13100 Aix-en-Provence",43.5192213,5.4336053,"Carburant additivé|Toilettes publiques|Boutique alimentaire|Station de gonflage|Boutique non alimentaire|Vente de gaz domestique (Butane, Propane)|Lavage automatique",False
"94190005","SARL SIGESS CLD","Esso","232 Rue de Paris 94190 VILLENEUVE-SAINT-GEORGES",48.7420343,2.4469394,"Carburant additivé|Toilettes publiques|Boutique alimentaire|Station de gonflage|Boutique non alimentaire|Relais colis|Lavage manuel",False
"35500009","RELAIS ERBREE","Total","ROUTE NATIONALE 157  AIRE D'ERBRÉE 35500 ERBREE",48.09032,-1.0983100000000001,"Restauration à emporter|Carburant additivé|Toilettes publiques|Boutique alimentaire|Station de gonflage|Espace bébé|Boutique non alimentaire|Piste poids lourds",False
"46600004","AGIP A 20 AIRE DE PECH MONTAT","Agip","AIRE DE PECH MONTAT BITRAFIC 46600 CRESSENSAC",45.032736799999995,1.5246676000000001,"Restauration à emporter|Carburant additivé|Restauration sur place|Toilettes publiques|Bar|Douches|Boutique alimentaire|Station de gonflage|Espace bébé|Boutique non alimentaire|Piste poids lourds",False
"47300001","Auchan Villeneuve sur lot","Auchan","Route de Bordeaux 47300 BIAS",44.4038501,0.6776513000000001,"Restauration à emporter|Carburant additivé|Restauration sur place|Toilettes publiques|Bar|Boutique alimentaire|Station de gonflage|Boutique non alimentaire|Services réparation / entretien|Vente de gaz domestique (Butane, Propane)|Piste poids lourds|Automate CB|Lavage automatique|Vente de pétrole lampant",True
"81400001","SUPER U","Système U","150 Avenue d'Albi 81400 BLAYE-LES-MINES",44.0270677,2.155243,"Restauration à emporter|Toilettes publiques|Bar|Boutique alimentaire|Station de gonflage|Boutique non alimentaire|Laverie|Vente de gaz domestique (Butane, Propane)|Location de véhicule|Relais colis|Piste poids lourds|Automate CB|Lavage automatique|Lavage manuel|Automate CB 24/24",True
"71480003","AVIA","Avia","A39 AIRE DU POULET DE BRESSE 71480 Dommartin-lès-Cuiseaux",46.4961286,5.311659099999999,"Restauration à emporter|Carburant additivé|Toilettes publiques|Douches|Boutique alimentaire|Station de gonflage|Espace bébé|Boutique non alimentaire|Piste poids lourds|Automate CB|Vente de fioul domestique|Bornes électriques|Wifi|Automate CB 24/24",True
"62360006","RELAIS BERGERONNETTES","Total Access","43 BOULEVARD DE LA LIANE 62360 Saint-Léonard",50.688906200000005,1.6188693,"Carburant additivé|Boutique alimentaire|Station de gonflage|Piste poids lourds|Automate CB|Lavage automatique|Lavage manuel",True
"68520006","RELAIS DIEFMATTEN","Total","AUTOROUTE A36  AIRE PORTE D'ALSACE 68520 Burnhaupt-le-Bas",47.7172165,7.1379505000000005,"",False
"49000001","GEANT CASINO","Géant","Rue du Grand Montrejeau 49000 ANGERS",47.4669781,-0.5258178000000001,"Carburant additivé|Vente de gaz domestique (Butane, Propane)|Automate CB|Lavage automatique|Lavage manuel",True
"42190003","INTERMARCHE ST NIZIER/CHARLIEU","Intermarché","538 rue magellan 42190 Saint-Nizier-sous-Charlieu",46.1517604,4.1544073,"Toilettes publiques|Station de gonflage|Vente de gaz domestique (Butane, Propane)|Location de véhicule|Piste poids lourds|Automate CB|Lavage automatique|Lavage manuel|Automate CB 24/24",True
"57000021","RELAIS ST PRIVAT","Total","51/59 AVE DU XXEME CORPS AMERICA 57000 METZ",49.1010424,6.1628482,"",False
"32000002","SARL SAMA","Avia","203 Rue Victor Hugo 32000 AUCH",43.655,0.565,"Toilettes publiques|Boutique alimentaire|Station de gonflage|Vente de gaz domestique (Butane, Propane)|Relais colis|Automate CB|Lavage manuel|Vente de fioul domestique",True
"74540001","SARL PROVENT","Total","ROUTE D'AIX LES BAINS 74540 Alby-sur-Chéran",45.81893,6.0051,"Carburant additivé|Toilettes publiques|Station de gonflage|Boutique non alimentaire|Services réparation / entretien|Piste poids lourds|Automate CB|Lavage automatique|Lavage manuel",True
